stop_id,stop_name,stop_desc,stop_lat,stop_lon
"60","1ST AVE & UNION ST","", 47.607330,-122.338760
"70","1ST AVE & SENECA ST","", 47.605740,-122.337318
"130","1ST AVE S & S JACKSON ST","", 47.599548,-122.334091
"150","1ST AVE & YESLER WAY","", 47.602207,-122.334076
"170","1ST AVE & MARION ST","", 47.604321,-122.335785
"180","1ST AVE & SENECA ST","", 47.606079,-122.337379
"185","SENECA ST & 2ND AVE","", 47.606941,-122.335403
"190","1ST AVE & UNIVERSITY ST","", 47.607189,-122.338409
"200","1ST AVE & PINE ST","", 47.609798,-122.340782
"220","1ST AVE & LENORA ST","", 47.612099,-122.344200
"230","1ST AVE & BELL ST","", 47.613663,-122.346848
"250","2ND AVE & BELL ST","", 47.613705,-122.345253
"259","BLANCHARD ST & 4TH AVE","", 47.614525,-122.342598
"260","2ND AVE & LENORA ST","", 47.612164,-122.342628
"280","2ND AVE & STEWART ST","", 47.610703,-122.340332
"300","2ND AVE & PIKE ST","", 47.608646,-122.338432
"320","2ND AVE & SENECA ST","", 47.606213,-122.336205
"340","2ND AVE & MARION ST","", 47.604465,-122.334625
"360","2ND AVE & CHERRY ST","", 47.603020,-122.333298
"361","2ND AVE & JAMES ST","", 47.602478,-122.332809
"390","2 AVE EXT S & S JACKSON ST","", 47.599266,-122.329857
"400","3RD AVE & BELL ST","", 47.614445,-122.344513
"420","3RD AVE & VIRGINIA ST","", 47.612373,-122.341019
"430","3RD AVE & PINE ST","", 47.610970,-122.339050
"431","3RD AVE & PIKE ST","", 47.609791,-122.337959
"450","3RD AVE & UNION ST","", 47.608250,-122.336548
"455","UNIVERSITY STREET","", 47.607246,-122.335754
"99455","UNIVERSITY STREET","", 47.607246,-122.335754
"456","UNIVERSITY STREET","", 47.607609,-122.336082
"468","3RD AVE & SENECA ST","", 47.606503,-122.334938
"480","3RD AVE & MARION ST","", 47.604996,-122.333572
"482","COLUMBIA ST & 2ND AVE","", 47.603806,-122.333847
"490","3RD AVE & COLUMBIA ST","", 47.603794,-122.332466
"500","3RD AVE & JAMES ST","", 47.602234,-122.331047
"501","PIONEER SQUARE","", 47.602139,-122.331055
"99501","PIONEER SQUARE","", 47.602139,-122.331055
"502","PIONEER SQUARE","", 47.602608,-122.331497
"515","3RD AVE S & S MAIN ST","", 47.600239,-122.330376
"531","3RD AVE & JAMES ST","", 47.602642,-122.331184
"532","PIONEER SQUARE","", 47.603199,-122.331581
"99532","PIONEER SQUARE","", 47.603199,-122.331581
"533","PIONEER SQUARE","", 47.602581,-122.331017
"538","3RD AVE & COLUMBIA ST","", 47.604191,-122.332588
"548","3RD AVE & MADISON ST","", 47.605541,-122.333832
"558","3RD AVE & SENECA ST","", 47.607052,-122.335213
"565","UNIVERSITY STREET","", 47.608246,-122.336166
"99565","UNIVERSITY STREET","", 47.608246,-122.336166
"566","UNIVERSITY STREET","", 47.607723,-122.335686
"570","3RD AVE & UNION ST","", 47.608688,-122.336700
"578","3RD AVE & PIKE ST","", 47.610291,-122.338173
"590","3RD AVE & PINE ST","", 47.611137,-122.338966
"600","3RD AVE & VIRGINIA ST","", 47.612663,-122.341194
"605","3RD AVE & BELL ST","", 47.615036,-122.345200
"619","4TH AVE S & S JACKSON ST","", 47.599560,-122.328979
"620","4TH AVE S & S JACKSON ST","", 47.598812,-122.328903
"621","INT'L DISTRICT","", 47.598450,-122.327820
"99621","INT'L DISTRICT","", 47.598450,-122.327820
"622","INT'L DISTRICT","", 47.597939,-122.327820
"623","INT'L DISTRICT","", 47.597660,-122.328217
"99623","INT'L DISTRICT","", 47.597660,-122.328217
"624","INT'L DISTRICT","", 47.598381,-122.328186
"625","S WASHINGTON ST & 4TH AVE S","", 47.600803,-122.329048
"628","4TH AVE S & S WASHINGTON ST","", 47.601223,-122.328888
"640","4TH AVE & JAMES ST","", 47.603127,-122.330086
"648","4TH AVE & CHERRY ST","", 47.604321,-122.331169
"660","4TH AVE & MADISON ST","", 47.606075,-122.332779
"670","4TH AVE & SENECA ST","", 47.607498,-122.334076
"675","SENECA ST & 5TH AVE","", 47.608070,-122.333092
"682","4TH AVE & UNIVERSITY ST","", 47.608822,-122.335297
"700","4TH AVE & PIKE ST","", 47.610809,-122.337112
"720","4TH AVE & STEWART ST","", 47.612621,-122.339134
"730","4TH AVE & LENORA ST","", 47.614029,-122.341522
"740","4TH AVE & BELL ST","", 47.615337,-122.343719
"760","5TH AVE & PINE ST","", 47.611668,-122.336601
"790","5TH AVE & SENECA ST","", 47.608177,-122.333405
"810","5TH AVE & MARION ST","", 47.605831,-122.331261
"820","5TH AVE & JEFFERSON ST","", 47.603092,-122.328751
"840","5TH AVE S & S JACKSON ST","", 47.599880,-122.327560
"843","5TH AVE S & S JACKSON ST","", 47.598984,-122.327766
"910","STEWART ST & YALE AVE","", 47.618114,-122.331345
"940","STEWART ST & 9TH AVE","", 47.615704,-122.334457
"950","STEWART ST & 7TH AVE","", 47.614361,-122.336205
"970","STEWART ST & 4TH AVE","", 47.612129,-122.339073
"992","HOWELL ST & 9TH AVE","", 47.614635,-122.333260
"1020","HOWELL ST & YALE AVE","", 47.617626,-122.329407
"1030","OLIVE WAY & 4TH AVE","", 47.612099,-122.338570
"1040","OLIVE WAY & 6TH AVE","", 47.613026,-122.336334
"1050","OLIVE WAY & 8TH AVE","", 47.613937,-122.334160
"1070","OLIVE WAY & TERRY AVE","", 47.614914,-122.331848
"1082","CONVENTION PLACE","", 47.614113,-122.331726
"1083","CONVENTION PLACE","", 47.614220,-122.331795
"1084","CONVENTION PLACE","", 47.614277,-122.331863
"1085","PINE ST & 9TH AVE","", 47.613377,-122.332603
"1086","CONVENTION PLACE","", 47.614281,-122.331902
"1108","WESTLAKE STATION","", 47.611393,-122.337509
"91108","WESTLAKE STATION","", 47.611393,-122.337509
"1109","WESTLAKE STATION","", 47.611725,-122.336716
"1110","PINE ST & 5TH AVE","", 47.611767,-122.336456
"1111","PINE ST & 3RD AVE","", 47.610844,-122.338554
"1120","PINE ST & 4TH AVE","", 47.611103,-122.338028
"1121","WESTLAKE STATION","", 47.611801,-122.335823
"91121","WESTLAKE STATION","", 47.611801,-122.335823
"1122","WESTLAKE STATION","", 47.611286,-122.337067
"1130","PINE ST & 2ND AVE","", 47.610165,-122.340279
"1180","PIKE ST & 4TH AVE","", 47.610134,-122.336685
"1190","PIKE ST & 6TH AVE","", 47.611034,-122.334526
"1192","CONVENTION PLACE","", 47.613941,-122.331520
"1193","CONVENTION PLACE","", 47.613785,-122.331879
"1209","CONVENTION PL & UNION ST","", 47.611034,-122.331863
"1215","UNION ST & 6TH AVE","", 47.610077,-122.333923
"1230","UNION ST & 4TH AVE","", 47.609131,-122.336182
"1250","SENECA ST & 4TH AVE","", 47.607422,-122.334610
"1260","SENECA ST & 6TH AVE","", 47.608742,-122.331482
"1270","SPRING ST & 4TH AVE","", 47.606876,-122.333206
"1280","SPRING ST & 6TH AVE","", 47.607815,-122.330948
"1300","MADISON ST & 8TH AVE","", 47.608028,-122.328079
"1310","YESLER WAY & POST AVE","", 47.601658,-122.334908
"1315","YESLER WAY & 1ST AVE S","", 47.601658,-122.333656
"1340","YESLER WAY & PREFONTAINE PL S","", 47.601646,-122.329857
"1350","YESLER WAY & 6TH AVE S","", 47.601639,-122.325966
"1360","YESLER WAY & 5TH AVE","", 47.601788,-122.327400
"1370","YESLER WAY & 3RD AVE","", 47.601780,-122.329803
"1400","MADISON ST & 5TH AVE","", 47.606636,-122.331779
"1415","MADISON ST & 4TH AVE","", 47.605984,-122.333366
"1420","MADISON ST & 2ND AVE","", 47.605328,-122.334923
"1425","MADISON ST & 1ST AVE","", 47.604778,-122.336220
"1451","S MAIN ST & 3RD AVE S","", 47.599972,-122.329826
"1466","S JACKSON ST & 2ND AVE S","", 47.599136,-122.331223
"1471","S JACKSON ST & 5TH AVE S","", 47.599125,-122.328041
"1480","S JACKSON ST & MAYNARD AVE S","", 47.599117,-122.324570
"1490","S JACKSON ST & 8TH AVE S","", 47.599117,-122.322044
"1495","8TH AVE S & S KING ST","", 47.598515,-122.322548
"1500","S JACKSON ST & 8TH AVE S","", 47.599255,-122.322327
"1510","S JACKSON ST & MAYNARD AVE S","", 47.599262,-122.325455
"1530","S JACKSON ST & 5TH AVE S","", 47.599266,-122.328384
"1535","S JACKSON ST & OCCIDENTAL AVE S","", 47.599270,-122.332436
"1540","JAMES ST & 5TH AVE","", 47.603817,-122.329102
"1550","JAMES ST & 4TH AVE","", 47.603172,-122.330635
"1560","JAMES ST & 3RD AVE","", 47.602783,-122.331192
"1570","JAMES ST & 5TH AVE","", 47.603786,-122.328789
"1580","MARION ST & 2ND AVE","", 47.604534,-122.334076
"1590","MARION ST & 4TH AVE","", 47.605461,-122.331863
"1600","6TH AVE & MARION ST","", 47.606571,-122.330170
"1610","PREFONTAINE PL S & YESLER WAY","", 47.601730,-122.330116
"1619","WESTLAKE AVE & VIRGINIA ST","", 47.614864,-122.337860
"1630","WESTLAKE AVE & OLIVE WAY","", 47.613281,-122.337547
"1690","3RD AVE & VINE ST","", 47.616871,-122.348297
"1710","TERRACE ST & 5TH AVE","", 47.602112,-122.328064
"1788","ALASKAN WAY & PIKE ST","", 47.607868,-122.342850
"1790","ALASKAN WAY & UNIVERSITY ST","", 47.605881,-122.340508
"1810","ALASKAN WAY & CLAY ST","", 47.614166,-122.353737
"1811","ALASKAN WAY & WALL ST","", 47.612663,-122.351059
"1833","ALASKAN WAY & BELL ST","", 47.611183,-122.348488
"1878","ALASKAN WAY & MADISON ST","", 47.603931,-122.338684
"1880","ALASKAN WAY & MADISON ST","", 47.603394,-122.338203
"1881","ALASKAN WAY & MARION ST","", 47.602840,-122.337708
"1888","VASHON PASS FERRY & PIER 50","", 47.601521,-122.337929
"1889","VASHON PASS FERRY & PIER 50","", 47.601635,-122.338051
"1890","MARION ST & 1ST AVE","", 47.604145,-122.335022
"1907","WATER TAXI ROUTE & WATER TAXI ROUTE","", 47.601204,-122.338997
"1908","WATER TAXI ROUTE & WATER TAXI ROUTE","", 47.601067,-122.338951
"1920","LENORA ST & 4TH AVE","", 47.613972,-122.341293
"2010","10TH AVE W & W FULTON ST","", 47.645351,-122.370277
"2020","10TH AVE W & W BOTHWELL ST","", 47.643486,-122.370308
"2030","10TH AVE W & W HALLADAY ST","", 47.641792,-122.370171
"2050","10TH AVE W & W MCGRAW ST","", 47.639458,-122.370415
"2060","10TH AVE W & W CROCKETT ST","", 47.637589,-122.370438
"2070","10TH AVE W & W HOWE ST","", 47.635769,-122.370453
"2080","10TH AVE W & W BLAINE ST","", 47.634563,-122.370468
"2090","10TH AVE W & W GALER ST","", 47.632374,-122.370506
"2100","OLYMPIC WAY W & W LEE ST","", 47.630848,-122.369949
"2110","OLYMPIC WAY W & 9TH AVE W","", 47.629498,-122.368652
"2120","OLYMPIC WAY W & 7TH AVE W","", 47.627605,-122.366096
"2130","OLYMPIC WAY W & 5TH AVE W","", 47.626690,-122.363350
"2140","W OLYMPIC PL & 3RD AVE W","", 47.626659,-122.360306
"2150","W ROY ST & 2ND AVE W","", 47.625648,-122.358765
"2180","QUEEN ANNE AVE N & W HARRISON ST","", 47.621834,-122.356834
"2200","QUEEN ANNE AVE N & W JOHN ST","", 47.619213,-122.356850
"2210","1ST AVE & BAY ST","", 47.617958,-122.354469
"2212","BROAD ST & 2ND AVE","", 47.617786,-122.351250
"2218","BROAD ST & 2ND AVE","", 47.617680,-122.351662
"2220","3RD AVE & CEDAR ST","", 47.616871,-122.348625
"2235","DENNY WAY & WARREN PL","", 47.618530,-122.354225
"2240","DENNY WAY & BROAD ST","", 47.618515,-122.351128
"2245","DENNY WAY & 5TH AVE N","", 47.618504,-122.347878
"2247","DENNY WAY & 6TH AVE","", 47.618496,-122.345131
"2250","DENNY WAY & DEXTER AVE","", 47.618481,-122.342545
"2255","DENNY WAY & WESTLAKE AVE","", 47.618469,-122.338226
"2260","DENNY WAY & FAIRVIEW AVE","", 47.618462,-122.334457
"2262","DENNY WAY & STEWART ST","", 47.618427,-122.330925
"2265","E DENNY WAY & E OLIVE WAY","", 47.618420,-122.325829
"2275","E DENNY WAY & BELLEVUE AVE E","", 47.618565,-122.326645
"2280","DENNY WAY & STEWART ST","", 47.618572,-122.331673
"2285","DENNY WAY & FAIRVIEW AVE N","", 47.618603,-122.334213
"2291","DENNY WAY & WESTLAKE AVE","", 47.618607,-122.339020
"2295","DENNY WAY & DEXTER AVE N","", 47.618614,-122.342163
"2297","DENNY WAY & 6TH AVE N","", 47.618629,-122.345291
"2300","DENNY WAY & 5TH AVE N","", 47.618641,-122.347847
"2320","1ST AVE & BROAD ST","", 47.617218,-122.352859
"2330","1ST AVE N & DENNY WAY","", 47.618904,-122.355347
"2360","1ST AVE N & REPUBLICAN ST","", 47.623188,-122.355316
"2370","MERCER ST & QUEEN ANNE AVE N","", 47.624649,-122.356552
"2390","2ND AVE W & W ROY ST","", 47.625896,-122.359215
"2400","W OLYMPIC PL & 3RD AVE W","", 47.626793,-122.360535
"2410","W OLYMPIC PL & 5TH AVE W","", 47.626808,-122.363159
"2420","OLYMPIC WAY W & 7TH AVE W","", 47.627861,-122.366356
"2430","OLYMPIC WAY W & W PROSPECT ST","", 47.629059,-122.367981
"2440","OLYMPIC WAY W & W LEE ST","", 47.631279,-122.370110
"2450","10TH AVE W & W GALER ST","", 47.632504,-122.370308
"2460","10TH AVE W & W BLAINE ST","", 47.634956,-122.370262
"2470","10TH AVE W & W HOWE ST","", 47.636150,-122.370247
"2480","10TH AVE W & W CROCKETT ST","", 47.637974,-122.370224
"2490","10TH AVE W & W MCGRAW ST","", 47.639767,-122.370125
"2500","10TH AVE W & W HALLADAY ST","", 47.642193,-122.369965
"2510","10TH AVE W & W NEWELL ST","", 47.644455,-122.370087
"2520","9TH AVE W & W ARMOUR ST","", 47.645317,-122.369278
"2550","7TH AVE W & W PLEASANT PL","", 47.642761,-122.366341
"2570","W MCGRAW ST & 6TH AVE W","", 47.639523,-122.365318
"2580","6TH AVE W & W CROCKETT ST","", 47.637566,-122.365089
"2590","6TH AVE W & W HOWE ST","", 47.636024,-122.365097
"2600","6TH AVE W & W BLAINE ST","", 47.634525,-122.365128
"2610","6TH AVE W & W GALER ST","", 47.632458,-122.365158
"2620","W GALER ST & 5TH AVE W","", 47.632263,-122.362793
"2630","W GALER ST & 2ND AVE W","", 47.632252,-122.358833
"2640","QUEEN ANNE AVE N & W GALER ST","", 47.631836,-122.356697
"2650","QUEEN ANNE AVE N & W COMSTOCK ST","", 47.630489,-122.356712
"2660","QUEEN ANNE AVE N & W HIGHLAND DR","", 47.629612,-122.356728
"2670","QUEEN ANNE AVE N & W PROSPECT ST","", 47.628506,-122.356781
"2672","QUEEN ANNE AVE N & W MERCER ST","", 47.624306,-122.356819
"2680","QUEEN ANNE AVE N & W ALOHA ST","", 47.626888,-122.356796
"2690","1ST AVE N & MERCER ST","", 47.624737,-122.355309
"2710","QUEEN ANNE AVE N & ALOHA ST","", 47.627110,-122.356590
"2720","QUEEN ANNE AVE N & WARD ST","", 47.628319,-122.356575
"2730","QUEEN ANNE AVE N & HIGHLAND DR","", 47.629791,-122.356522
"2740","QUEEN ANNE AVE N & W LEE ST","", 47.631493,-122.356491
"2760","W GALER ST & 1ST AVE W","", 47.632389,-122.358627
"2770","W GALER ST & 3RD AVE W","", 47.632393,-122.361290
"2780","W GALER ST & 5TH AVE W","", 47.632393,-122.364037
"2790","6TH AVE W & W GARFIELD ST","", 47.633701,-122.364937
"2800","6TH AVE W & W HOWE ST","", 47.636162,-122.364899
"2810","6TH AVE W & W CROCKETT ST","", 47.637970,-122.364868
"2820","6TH AVE W & W MCGRAW ST","", 47.639839,-122.364853
"2830","6TH AVE W & W SMITH ST","", 47.641632,-122.364830
"2840","6TH AVE W & W RAYE ST","", 47.643002,-122.364815
"6710","GREENWOOD AVE N & N 103RD ST","", 47.703884,-122.355347
"6730","GREENWOOD AVE N & N 107TH ST","", 47.707172,-122.355377
"6740","GREENWOOD AVE N & N 110TH ST","", 47.708942,-122.355385
"6750","GREENWOOD AVE N & N 112TH ST","", 47.710777,-122.355400
"6770","GREENWOOD AVE N & N 117TH ST","", 47.714382,-122.355415
"6790","GREENWOOD AVE N & N 122ND ST","", 47.718048,-122.355431
"6800","GREENWOOD AVE N & N 125TH ST","", 47.719948,-122.355438
"6820","GREENWOOD AVE N & N 130TH ST","", 47.723675,-122.355453
"6840","GREENWOOD AVE N & N 134TH ST","", 47.726650,-122.355453
"6850","GREENWOOD AVE N & N 137TH ST","", 47.728973,-122.355453
"6870","GREENWOOD AVE N & N 143RD ST","", 47.732128,-122.355469
"6880","GREENWOOD AVE N & N 145TH ST","", 47.733524,-122.355469
"6940","N INNIS ARDEN WAY & GREENWOOD AVE N","", 47.745975,-122.357010
"6950","AURORA AVE N & N 145TH ST","", 47.733585,-122.345200
"6990","AURORA AVE N & N 135TH ST","", 47.726429,-122.345116
"7000","AURORA AVE N & N 130TH ST","", 47.722961,-122.345078
"7010","AURORA AVE N & N 125TH ST","", 47.718998,-122.345032
"7040","AURORA AVE N & N 115TH ST","", 47.711880,-122.344910
"7050","AURORA AVE N & 11200 BLOCK","", 47.710247,-122.344879
"7080","AURORA AVE N & N 105TH ST","", 47.704781,-122.344803
"7100","AURORA AVE N & N 100TH ST","", 47.701088,-122.344749
"7120","AURORA AVE N & N 95TH ST","", 47.697495,-122.344704
"7140","AURORA AVE N & N 90TH ST","", 47.693962,-122.344666
"7160","AURORA AVE N & N 85TH ST","", 47.689877,-122.344620
"7180","AURORA AVE N & N 80TH ST","", 47.686752,-122.344612
"7200","AURORA AVE N & N 76TH ST","", 47.683800,-122.344597
"7220","LINDEN AVE N & N 73RD ST","", 47.681629,-122.346710
"7240","LINDEN AVE N & N 68TH ST","", 47.678413,-122.347382
"7260","WOODLAND PL N & N 64TH ST","", 47.675056,-122.347763
"7350","STONE WAY N & N 45TH ST","", 47.661221,-122.342262
"7360","STONE WAY N & N 43RD ST","", 47.658962,-122.342369
"7380","STONE WAY N & N 40TH ST","", 47.655144,-122.342560
"7382","STONE WAY N & N 38TH ST","", 47.652451,-122.342697
"7400","BRIDGE WAY N & WHITMAN AVE N","", 47.653271,-122.345139
"7430","WALL ST & 5TH AVE","", 47.617432,-122.345345
"7479","BRIDGE WAY N & WHITMAN AVE N","", 47.652378,-122.346344
"7498","STONE WAY N & N 38TH ST","", 47.652939,-122.342468
"7500","STONE WAY N & N 40TH ST","", 47.655155,-122.342354
"7520","STONE WAY N & N 42ND ST","", 47.658264,-122.342209
"7530","STONE WAY N & N ALLEN PL","", 47.660576,-122.342079
"7630","WOODLAND PL N & N 64TH ST","", 47.675323,-122.347519
"7650","LINDEN AVE N & N 67TH ST","", 47.677998,-122.347176
"7670","LINDEN AVE N & N 72ND ST","", 47.681229,-122.346809
"7690","AURORA AVE N & N 76TH ST","", 47.683754,-122.344391
"7710","AURORA AVE N & N 80TH ST","", 47.687130,-122.344406
"7730","AURORA AVE N & N 85TH ST","", 47.690895,-122.344429
"7750","AURORA AVE N & N 91ST ST","", 47.694691,-122.344475
"7770","AURORA AVE N & N 95TH ST","", 47.698055,-122.344513
"7790","AURORA AVE N & N 100TH ST","", 47.701675,-122.344551
"7810","AURORA AVE N & N NORTHGATE WAY","", 47.705353,-122.344597
"7840","AURORA AVE N & 11200 BLOCK","", 47.710693,-122.344688
"7850","AURORA AVE N & N 115TH ST","", 47.713692,-122.344734
"7880","AURORA AVE N & N 125TH ST","", 47.719795,-122.344841
"7900","AURORA AVE N & N 130TH ST","", 47.723461,-122.344879
"7912","AURORA AVE N & N 135TH ST","", 47.727085,-122.344925
"7941","LINDEN AVE N & N 143RD ST","", 47.732559,-122.347641
"7950","62ND AVE S & S PRENTICE ST","", 47.508312,-122.256004
"7960","S PRENTICE ST & 64TH AVE S","", 47.508121,-122.253754
"7970","64TH AVE S & S RYAN ST","", 47.509659,-122.253441
"7980","64TH AVE S & S COOPER ST","", 47.511600,-122.253426
"8000","WATERS AVE S & S NORFOLK ST","", 47.513691,-122.254097
"8010","WATERS AVE S & S PILGRIM ST","", 47.515598,-122.256660
"8020","WATERS AVE S & S ROXBURY ST","", 47.516857,-122.258293
"8030","WATERS AVE S & S CARVER ST","", 47.518105,-122.259918
"8040","57TH AVE S & WATERS AVE S","", 47.519527,-122.261497
"8050","RAINIER AVE S & SEWARD PK AVE S","", 47.520100,-122.263481
"8070","RAINIER AVE S & 52ND AVE S","", 47.519917,-122.267807
"8080","RAINIER AVE S & S FISHER PL","", 47.521328,-122.269897
"8090","RAINIER AVE S & S HENDERSON ST","", 47.523224,-122.269890
"8100","RAINIER AVE S & CLOVERDALE PL S","", 47.525970,-122.269890
"8110","RAINIER AVE S & S ROSE ST","", 47.529728,-122.269890
"8140","RAINIER AVE S & S HOLDEN ST","", 47.533909,-122.269890
"8160","RAINIER AVE S & S OTHELLO ST","", 47.537373,-122.270271
"8175","RAINIER AVE S & S S FRONTENAC ST ST","", 47.540131,-122.271065
"8190","RAINIER AVE S & S HOLLY ST","", 47.542728,-122.272881
"8210","RAINIER AVE S & S GRAHAM ST","", 47.546032,-122.275856
"8231","RAINIER AVE S & S KENNY ST","", 47.549225,-122.276947
"8250","RAINIER AVE S & S ORCAS ST","", 47.551476,-122.277725
"8270","RAINIER AVE S & S BRANDON ST","", 47.553509,-122.279709
"8285","RAINIER AVE S & 39TH AVE S","", 47.556377,-122.283890
"8300","RAINIER AVE S & S EDMUNDS ST","", 47.558910,-122.285484
"8310","RAINIER AVE S & S ALASKA ST","", 47.561024,-122.287125
"8330","RAINIER AVE S & S GENESEE ST","", 47.564510,-122.288208
"8350","RAINIER AVE S & S ANDOVER ST","", 47.568546,-122.289574
"8360","RAINIER AVE S & 33RD AVE S","", 47.569969,-122.290924
"8380","RAINIER AVE S & S WALDEN ST","", 47.572899,-122.293877
"8400","RAINIER AVE S & S MOUNT BAKER BLVD","", 47.575809,-122.296089
"8401","RAINIER AVE S & S FOREST ST","", 47.577507,-122.297401
"8402","MT BAKER TC","", 47.577621,-122.297211
"8403","MT BAKER TC","", 47.577713,-122.297165
"8429","RAINIER AVE S & S BAYVIEW ST","", 47.581196,-122.300217
"8440","RAINIER AVE S & S WALKER ST","", 47.583931,-122.302315
"8450","RAINIER AVE S & S PLUM ST","", 47.585743,-122.303680
"8460","RAINIER AVE S & S GRAND ST","", 47.587112,-122.304710
"8485","RAINIER AVE S & I-90","", 47.590328,-122.307182
"8492","RAINIER AVE S & S NORMAN ST","", 47.593536,-122.309624
"8510","RAINIER AVE S & S DEARBORN ST","", 47.596130,-122.311623
"8530","S JACKSON ST & BOREN AVE S","", 47.599274,-122.314827
"8540","S JACKSON ST & 12TH AVE S","", 47.599125,-122.316772
"8570","RAINIER AVE S & S DEARBORN ST","", 47.596401,-122.312042
"8590","RAINIER AVE S & S CHARLES ST","", 47.594055,-122.310257
"8608","RAINIER AVE S & I-90","", 47.590176,-122.307289
"8620","RAINIER AVE S & S STATE ST","", 47.587524,-122.305252
"8641","RAINIER AVE S & S WALKER ST","", 47.583729,-122.302383
"8660","RAINIER AVE S & S BAYVIEW ST","", 47.580791,-122.300133
"8671","MARTIN L KING JR WAY S & S MCCLELLAN ST","", 47.578617,-122.296089
"8672","MARTIN L KING JR WAY S & S BAYVIEW ST","", 47.581547,-122.297058
"8681","RAINIER AVE S & S STEVENS ST","", 47.577087,-122.297302
"8690","RAINIER AVE S & ML KING JR WAY WAY S","", 47.576160,-122.296593
"8710","RAINIER AVE S & S WALDEN ST","", 47.572689,-122.293953
"2850","MADRONA PARK & LK WASHINGTON BLVD","", 47.612225,-122.281746
"2860","MADRONA DR & NEWPORT WAY","", 47.613262,-122.282372
"2870","MADRONA DR & E PINE ST","", 47.615211,-122.283791
"2880","MADRONA DR & E OLIVE ST","", 47.616684,-122.284500
"2890","MADRONA DR & MADRONA PL E","", 47.618347,-122.285255
"2900","E DENNY WAY & E FLORENCE CT","", 47.618359,-122.288643
"2910","34TH AVE & E HOWELL ST","", 47.617393,-122.289284
"2911","34TH AVE & E OLIVE ST","", 47.616302,-122.289314
"2920","34TH AVE & E PINE ST","", 47.614986,-122.289352
"2930","34TH AVE & E UNION ST","", 47.613014,-122.289406
"2940","E UNION ST & 33RD AVE","", 47.612972,-122.290802
"2950","E UNION ST & 31ST AVE","", 47.613003,-122.292915
"2960","E UNION ST & 29TH AVE","", 47.613022,-122.295296
"2970","E UNION ST & 27TH AVE","", 47.613003,-122.297821
"2980","E UNION ST & 25TH AVE","", 47.613007,-122.300461
"2995","E UNION ST & 23RD AVE","", 47.613007,-122.303001
"3000","E UNION ST & 20TH AVE","", 47.612980,-122.306168
"3010","E UNION ST & 18TH AVE","", 47.612972,-122.309349
"3020","E UNION ST & 16TH AVE","", 47.612972,-122.311920
"3030","E UNION ST & 14TH AVE","", 47.612988,-122.314423
"3031","E UNION ST & 12TH AVE","", 47.612980,-122.317101
"3032","E UNION ST & BROADWAY","", 47.613018,-122.320610
"3033","SENECA ST & HARVARD AVE","", 47.612614,-122.322342
"3034","SENECA ST & SUMMIT AVE","", 47.611629,-122.324570
"3035","SENECA ST & BOREN AVE","", 47.610935,-122.326233
"3036","SENECA ST & TERRY AVE","", 47.610241,-122.327904
"3037","SENECA ST & 8TH AVE","", 47.609291,-122.330185
"3150","SENECA ST & 8TH AVE","", 47.609211,-122.329994
"3151","SENECA ST & 9TH AVE","", 47.609905,-122.328323
"3152","SENECA ST & BOREN AVE","", 47.610817,-122.326126
"3153","SENECA ST & SUMMIT AVE","", 47.611763,-122.323883
"3154","SENECA ST & BOYLSTON AVE","", 47.612221,-122.322777
"3155","E UNION ST & BROADWAY","", 47.612885,-122.320389
"3156","E MADISON ST & 12TH AVE","", 47.612480,-122.317429
"3160","E UNION ST & 13TH AVE","", 47.612839,-122.315636
"3170","E UNION ST & 14TH AVE","", 47.612846,-122.313751
"3180","E UNION ST & 16TH AVE","", 47.612839,-122.311592
"3190","E UNION ST & 18TH AVE","", 47.612839,-122.309021
"3200","E UNION ST & 20TH AVE","", 47.612839,-122.306412
"3210","E UNION ST & 23RD AVE","", 47.612881,-122.301949
"3220","E UNION ST & 26TH AVE","", 47.612862,-122.298477
"3230","E UNION ST & MARTIN L KING JR WAY","", 47.612885,-122.295654
"3240","E UNION ST & 30TH AVE","", 47.612873,-122.293755
"3250","E UNION ST & 32ND AVE","", 47.612846,-122.291183
"3271","34TH AVE & E OLIVE ST","", 47.616692,-122.289108
"3280","34TH AVE & E HOWELL ST","", 47.617558,-122.289078
"3293","34TH AVE & E PIKE ST","", 47.614071,-122.289177
"3300","MADRONA DR & 38TH AVE","", 47.618149,-122.285156
"3310","MADRONA DR & E OLIVE ST","", 47.616528,-122.284706
"3320","MADRONA DR & E PINE ST","", 47.615013,-122.283859
"3330","MADRONA DR & NEWPORT WAY","", 47.613495,-122.282700
"3380","BEACON AVE S & S COLUMBIAN WAY","", 47.559223,-122.304161
"3400","BEACON AVE S & VA HOSPITAL","", 47.563469,-122.305489
"3410","BEACON AVE S & JEFF GOLF COURSE","", 47.567322,-122.306671
"3420","BEACON AVE S & JEFF COMM CENTER","", 47.569809,-122.307449
"3430","BEACON AVE S & S SPOKANE ST","", 47.572430,-122.308304
"3450","BEACON AVE S & S HANFORD ST","", 47.575359,-122.309204
"3460","BEACON AVE S & S STEVENS ST","", 47.577263,-122.310226
"3470","BEACON AVE S & S LANDER ST","", 47.579319,-122.312126
"3480","BEACON AVE S & 15TH AVE S","", 47.580532,-122.313248
"3500","14TH AVE S & S HILL ST","", 47.584503,-122.314583
"3515","14TH AVE S & S HOLGATE ST","", 47.586605,-122.314568
"3530","S MASSACHUSETTS ST & 14TH AVE S","", 47.588509,-122.315208
"3541","12TH AVE S & S MASSACHUSETTS ST","", 47.588760,-122.317177
"3550","12TH AVE S & S ATLANTIC ST","", 47.590248,-122.317177
"3570","12TH AVE S & S JUDKINS ST","", 47.592716,-122.317177
"3580","S CHARLES ST & GOLF DR S","", 47.594143,-122.316727
"3590","12TH AVE S & S WELLER ST","", 47.597721,-122.317123
"3600","S JACKSON ST & 12TH AVE S","", 47.599255,-122.317757
"3700","12TH AVE S & S JACKSON ST","", 47.598782,-122.317329
"3710","12TH AVE S & S WELLER ST","", 47.597305,-122.317329
"3730","GOLF DR S & 14TH AVE S","", 47.593430,-122.315346
"3740","14TH AVE S & S JUDKINS ST","", 47.591187,-122.314941
"3760","14TH AVE S & S MASSACHUSETTS ST","", 47.588184,-122.314964
"3770","14TH AVE S & S HOLGATE ST","", 47.586136,-122.314774
"3780","14TH AVE S & S WALKER ST","", 47.583565,-122.314804
"3800","BEACON AVE S & S BAYVIEW ST","", 47.580711,-122.313644
"3810","BEACON AVE S & S LANDER ST","", 47.579254,-122.312302
"3820","BEACON AVE S & S STEVENS ST","", 47.577114,-122.310318
"3830","BEACON AVE S & S HANFORD ST","", 47.575191,-122.309349
"3860","BEACON AVE S & S SPOKANE ST","", 47.571568,-122.308243
"3870","BEACON AVE S & JEFF COMM CENTER","", 47.569748,-122.307648
"3880","BEACON AVE S & JEFF GOLF COURSE","", 47.566845,-122.306740
"3881","BEACON AVE S & VA HOSPITAL","", 47.563015,-122.305542
"3883","BEACON AVE S & S COLUMBIAN WAY","", 47.559273,-122.304649
"3890","W RAYE ST & 1ST AVE W","", 47.643314,-122.358635
"3910","W MCGRAW ST & 2ND AVE W","", 47.639530,-122.359222
"3920","QUEEN ANNE AVE N & W MCGRAW ST","", 47.639320,-122.357010
"3930","BOSTON ST & QUEEN ANNE AVE N","", 47.638317,-122.356552
"3940","BOSTON ST & WARREN AVE N","", 47.638195,-122.354500
"3950","BOSTON ST & NOB HILL AVE N","", 47.638187,-122.350853
"3960","BOSTON ST & BIGELOW AVE N","", 47.638187,-122.348404
"3980","5TH AVE N & NEWTON ST","", 47.636307,-122.347221
"3990","TAYLOR AVE N & BLAINE ST","", 47.634628,-122.347504
"4000","TAYLOR AVE N & GARFIELD ST","", 47.633144,-122.346046
"4010","TAYLOR AVE N & LEE ST","", 47.631092,-122.346359
"4020","TAYLOR AVE N & PROSPECT ST","", 47.628971,-122.346329
"4040","5TH AVE N & VALLEY ST","", 47.626019,-122.347656
"4050","5TH AVE N & MERCER ST","", 47.624001,-122.347748
"4070","5TH AVE N & BROAD ST","", 47.621082,-122.347694
"4080","5TH AVE N & DENNY WAY","", 47.619213,-122.347710
"4200","CEDAR ST & 5TH AVE","", 47.618534,-122.347504
"4220","5TH AVE N & BROAD ST","", 47.621300,-122.347488
"4230","5TH AVE N & REPUBLICAN ST","", 47.623589,-122.347366
"4245","VALLEY ST & TAYLOR AVE N","", 47.626209,-122.346382
"4265","TAYLOR AVE N & PROSPECT ST","", 47.629128,-122.346123
"4280","TAYLOR AVE N & LEE ST","", 47.631355,-122.346169
"4290","TAYLOR AVE N & GALER ST","", 47.632507,-122.345856
"4300","TAYLOR AVE N & 5TH AVE N","", 47.634247,-122.346237
"4325","5TH AVE N & NEWTON ST","", 47.636765,-122.347015
"4340","BOSTON ST & 4TH AVE N","", 47.638325,-122.349785
"4355","BOSTON ST & 2ND AVE N","", 47.638329,-122.353424
"4370","BOSTON ST & QUEEN ANNE AVE N","", 47.638447,-122.356247
"4380","QUEEN ANNE AVE N & MCGRAW ST","", 47.639790,-122.356812
"4400","W RAYE ST & QUEEN ANNE AVE N","", 47.643314,-122.357094
"4420","NOB HILL AVE N & GALER ST","", 47.632557,-122.350685
"4440","GARFIELD ST & 2ND AVE N","", 47.633232,-122.353050
"4455","BLAINE ST & WARREN AVE N","", 47.634933,-122.354691
"4465","QUEEN ANNE AVE N & GARFIELD ST","", 47.633827,-122.356873
"4490","QUEEN ANNE AVE N & CROCKETT ST","", 47.637478,-122.356834
"4500","QUEEN ANNE AVE N & W CROCKETT ST","", 47.636879,-122.357056
"4510","BLAINE ST & QUEEN ANNE AVE N","", 47.634670,-122.356560
"4540","2ND AVE N & GARFIELD ST","", 47.632946,-122.353325
"5330","N 85TH ST & GREENWOOD AVE N","", 47.690525,-122.354935
"5350","N 85TH ST & FREMONT AVE N","", 47.690506,-122.349609
"5370","N 85TH ST & AURORA AVE N","", 47.690495,-122.344734
"5380","N 85TH ST & STONE AVE N","", 47.690472,-122.341507
"5400","N 85TH ST & WALLINGFORD AVE N","", 47.690445,-122.336601
"5402","NE 42ND ST & 8TH AVE NE","", 47.657589,-122.320366
"5419","I-5 & NE 45TH ST","", 47.661613,-122.320801
"5420","N 85TH ST & WALLINGFORD AVE N","", 47.690578,-122.336769
"5421","5TH AVE NE & NE 45TH ST","", 47.660561,-122.323013
"5440","N 85TH ST & STONE AVE N","", 47.690609,-122.341194
"5450","N 85TH ST & AURORA AVE N","", 47.690628,-122.344360
"5470","N 85TH ST & FREMONT AVE N","", 47.690647,-122.350266
"5486","GREENWOOD AVE N & N GREENWOOD DR","", 47.747112,-122.355576
"5487","CARLYLE HALL RD N & DAYTON AVE N","", 47.748753,-122.353638
"5488","CARLYLE HALL RD N & DAYTON AVE N","", 47.749794,-122.354881
"5489","GREENWOOD AVE N & N GREENWOOD DR","", 47.746704,-122.355782
"5492","SHORELINE CC","", 47.747005,-122.357849
"5493","SHORELINE CC","", 47.747147,-122.358665
"5502","N INNIS ARDEN WAY & GREENWOOD AVE N","", 47.745239,-122.355705
"5550","GREENWOOD AVE N & N 145TH ST","", 47.733799,-122.355675
"5560","GREENWOOD AVE N & N 143RD ST","", 47.731956,-122.355675
"5580","GREENWOOD AVE N & N 137TH ST","", 47.728477,-122.355659
"5590","GREENWOOD AVE N & N 134TH ST","", 47.726425,-122.355659
"5610","GREENWOOD AVE N & N 130TH ST","", 47.722958,-122.355644
"5630","GREENWOOD AVE N & N 125TH ST","", 47.719677,-122.355644
"5640","GREENWOOD AVE N & N 122ND ST","", 47.717598,-122.355637
"5660","GREENWOOD AVE N & N 117TH ST","", 47.713760,-122.355621
"5670","GREENWOOD AVE N & N 115TH ST","", 47.712116,-122.355606
"5690","GREENWOOD AVE N & N 110TH ST","", 47.708466,-122.355576
"5710","GREENWOOD AVE N & HOLMAN RD N","", 47.704521,-122.355553
"5730","GREENWOOD AVE N & N 100TH ST","", 47.701160,-122.355507
"5740","GREENWOOD AVE N & N 97TH ST","", 47.699371,-122.355499
"5760","GREENWOOD AVE N & N 95TH ST","", 47.697083,-122.355469
"5770","GREENWOOD AVE N & N 90TH ST","", 47.694271,-122.355438
"5771","GREENWOOD AVE N & N 87TH ST","", 47.692551,-122.355431
"5790","GREENWOOD AVE N & N 85TH ST","", 47.690331,-122.355400
"5810","GREENWOOD AVE N & N 80TH ST","", 47.686707,-122.355400
"5820","GREENWOOD AVE N & N 78TH ST","", 47.685181,-122.355400
"5830","GREENWOOD AVE N & N 76TH ST","", 47.683762,-122.355400
"5840","GREENWOOD AVE N & N 74TH ST","", 47.682301,-122.355400
"5860","GREENWOOD AVE N & N 70TH ST","", 47.679310,-122.355431
"5875","PHINNEY AVE N & N 67TH ST","", 47.678009,-122.355377
"5880","PHINNEY AVE N & N 65TH ST","", 47.675694,-122.354462
"5900","PHINNEY AVE N & N 61ST ST","", 47.672779,-122.354485
"5910","PHINNEY AVE N & N 59TH ST","", 47.671562,-122.354485
"5930","PHINNEY AVE N & N 55TH ST","", 47.668484,-122.354515
"5940","PHINNEY AVE N & N 54TH ST","", 47.667503,-122.354530
"5960","PHINNEY AVE N & N 50TH ST","", 47.664700,-122.354065
"5980","PHINNEY AVE N & N 46TH ST","", 47.661869,-122.354088
"5990","PHINNEY AVE N & N 44TH ST","", 47.659996,-122.354485
"6000","N 43RD ST & PHINNEY AVE N","", 47.658894,-122.353943
"6020","N 43RD ST & FREMONT AVE N","", 47.658882,-122.350266
"6030","FREMONT AVE N & N 41ST ST","", 47.656425,-122.350044
"6040","FREMONT AVE N & N 39TH ST","", 47.655037,-122.350021
"6050","AURORA AVE N & N 38TH ST","", 47.652081,-122.347984
"6060","AURORA AVE N & HALLADAY ST","", 47.642090,-122.347069
"6070","AURORA AVE N & LYNN ST","", 47.638908,-122.345619
"6071","SEACREST MARINA & HARBOR AVE SW","", 47.589409,-122.380608
"6080","AURORA AVE N & CROCKETT ST","", 47.636753,-122.344131
"6100","AURORA AVE N & GALER ST","", 47.632252,-122.343666
"6120","AURORA AVE N & PROSPECT ST","", 47.628731,-122.343704
"6150","AURORA AVE N & MERCER ST","", 47.624371,-122.343842
"6175","AURORA AVE N & DENNY WAY","", 47.619518,-122.343964
"6220","7TH AVE & BLANCHARD ST","", 47.616879,-122.340385
"6235","AURORA AVE N & DENNY WAY","", 47.618336,-122.343437
"6240","DEXTER AVE N & DENNY WAY","", 47.618942,-122.342300
"6250","AURORA AVE N & THOMAS ST","", 47.621143,-122.343513
"6270","AURORA AVE N & MERCER ST","", 47.624531,-122.343491
"6290","AURORA AVE N & PROSPECT ST","", 47.629070,-122.343353
"6300","AURORA AVE N & GALER ST","", 47.632374,-122.343315
"6310","AURORA AVE N & CROCKETT ST","", 47.637405,-122.344185
"6320","AURORA AVE N & LYNN ST","", 47.639046,-122.345306
"6330","AURORA AVE N & HALLADAY ST","", 47.641975,-122.346672
"6340","AURORA AVE N & N 38TH ST","", 47.652615,-122.346741
"6360","FREMONT AVE N & N 39TH ST","", 47.654400,-122.349815
"6380","FREMONT AVE N & N 41ST ST","", 47.656902,-122.349854
"6390","FREMONT AVE N & N 42ND ST","", 47.658001,-122.349899
"6400","N 43RD ST & FREMONT AVE N","", 47.659023,-122.350403
"6420","PHINNEY AVE N & N 43RD ST","", 47.659286,-122.354279
"6440","PHINNEY AVE N & N 46TH ST","", 47.662418,-122.353882
"6460","PHINNEY AVE N & N 50TH ST","", 47.664951,-122.353859
"6480","PHINNEY AVE N & N 53RD ST","", 47.667225,-122.354324
"6490","PHINNEY AVE N & N 55TH ST","", 47.668346,-122.354309
"6510","PHINNEY AVE N & N 58TH ST","", 47.671295,-122.354294
"6520","PHINNEY AVE N & N 60TH ST","", 47.672764,-122.354279
"6540","PHINNEY AVE N & N 64TH ST","", 47.675640,-122.354256
"6550","PHINNEY AVE N & N 67TH ST","", 47.677277,-122.354271
"6565","GREENWOOD AVE N & N 68TH ST","", 47.678944,-122.355225
"6580","GREENWOOD AVE N & N 72ND ST","", 47.681332,-122.355209
"6590","GREENWOOD AVE N & N 75TH ST","", 47.683537,-122.355194
"6600","GREENWOOD AVE N & N 77TH ST","", 47.685055,-122.355194
"6615","GREENWOOD AVE N & N 80TH ST","", 47.687332,-122.355194
"6640","GREENWOOD AVE N & N 85TH ST","", 47.690968,-122.355209
"6650","GREENWOOD AVE N & N 87TH ST","", 47.692844,-122.355225
"6652","NW 90TH ST & 1ST AVE NW","", 47.694302,-122.358391
"6653","3RD AVE NW & NW 89TH ST","", 47.693268,-122.360771
"6660","GREENWOOD AVE N & N 90TH ST","", 47.694466,-122.355240
"6670","GREENWOOD AVE N & N 92ND ST","", 47.696289,-122.355263
"6685","GREENWOOD AVE N & N 97TH ST","", 47.699570,-122.355293
"6693","GREENWOOD AVE N & N 100TH ST","", 47.701736,-122.355316
"18170","W NICKERSON ST & W EMERSON PL","", 47.654190,-122.375465
"18171","W NICKERSON ST & 13TH AVE W","", 47.655376,-122.373749
"18180","W NICKERSON ST & 12TH AVE W","", 47.654976,-122.372124
"18190","W NICKERSON ST & JESSE AVE W","", 47.653782,-122.370102
"18200","W NICKERSON ST & 8TH AVE W","", 47.652252,-122.367462
"18210","W NICKERSON ST & 6TH AVE W","", 47.651512,-122.364243
"18220","W NICKERSON ST & 3RD AVE W","", 47.650681,-122.360550
"18230","W NICKERSON ST & QUEEN ANNE AVE N","", 47.649796,-122.357903
"18240","NICKERSON ST & WARREN AVE N","", 47.648270,-122.354568
"18250","NICKERSON ST & FLORENTIA ST","", 47.647102,-122.352066
"18260","DEXTER AVE N & 4TH AVE N","", 47.645416,-122.349243
"18270","DEXTER AVE N & WHEELER ST","", 47.643513,-122.345863
"18290","DEXTER AVE N & 6TH AVE N","", 47.640583,-122.344597
"18310","DEXTER AVE N & DEXTER WAY N","", 47.637955,-122.343666
"18320","DEXTER AVE N & HOWE ST","", 47.635723,-122.342400
"18340","DEXTER AVE N & GALER ST","", 47.631958,-122.342384
"18359","DEXTER AVE N & ALOHA ST","", 47.627239,-122.342422
"18370","DEXTER AVE N & MERCER ST","", 47.625156,-122.342453
"18390","DEXTER AVE N & HARRISON ST","", 47.621864,-122.342476
"18402","DEXTER AVE & DENNY WAY","", 47.618301,-122.342506
"18406","BELL ST & 7TH AVE","", 47.617165,-122.341743
"18420","BELL ST & 4TH AVE","", 47.615177,-122.344322
"18455","DEXTER AVE N & HARRISON ST","", 47.622402,-122.342270
"18465","DEXTER AVE N & MERCER ST","", 47.625324,-122.342247
"18480","DEXTER AVE N & ALOHA ST","", 47.627407,-122.342232
"18505","DEXTER AVE N & GALER ST","", 47.632465,-122.342178
"18530","DEXTER AVE N & NEWTON ST","", 47.636093,-122.342354
"18540","DEXTER AVE N & CROCKETT ST","", 47.638096,-122.343529
"18550","DEXTER AVE N & WHEELER ST","", 47.640873,-122.344475
"18580","DEXTER AVE N & 2500 BLOCK","", 47.643898,-122.345978
"18590","DEXTER AVE N & 4TH AVE N","", 47.645466,-122.349037
"18600","NICKERSON ST & 3RD AVE N","", 47.647095,-122.351685
"18610","NICKERSON ST & WARREN AVE N","", 47.648430,-122.354568
"18620","NICKERSON ST & CREMONA ST","", 47.649681,-122.357300
"18630","W NICKERSON ST & 3RD AVE W","", 47.650986,-122.361244
"18640","W NICKERSON ST & 6TH AVE W","", 47.651676,-122.364311
"18650","W NICKERSON ST & 8TH AVE W","", 47.652378,-122.367371
"18660","W NICKERSON ST & JESSE AVE W","", 47.653969,-122.370102
"18670","W NICKERSON ST & 11TH AVE W","", 47.654903,-122.371696
"18671","W NICKERSON ST & 13TH AVE W","", 47.655476,-122.373978
"18675","FAUNTLEROY FERRY & FAUNTLEROY WAY SW","", 47.523117,-122.395508
"18680","W NICKERSON ST & W EMERSON ST","", 47.654419,-122.375740
"18696","NW LEARY WAY & 15TH AVE NW","", 47.663731,-122.377090
"18706","LEARY AVE NW & NW IONE PL","", 47.665527,-122.380646
"18720","LEARY AVE NW & NW VERNON PL","", 47.667210,-122.382629
"18725","LEARY AVE NW & NW VERNON PL","", 47.667439,-122.382912
"18740","NW MARKET ST & BALLARD AVE NW","", 47.668747,-122.386368
"18760","NW MARKET ST & 28TH AVE NW","", 47.668724,-122.392639
"18770","NW 54TH ST & NW MARKET ST","", 47.668594,-122.394951
"18780","NW 54TH ST & 32ND AVE NW","", 47.667732,-122.396927
"18785","NW MARKET ST & 30TH AVE NW","", 47.668709,-122.396057
"18790","32ND AVE NW & NW MARKET ST","", 47.668552,-122.398216
"18800","32ND AVE NW & NW 56TH ST","", 47.669785,-122.398224
"18810","32ND AVE NW & NW 58TH ST","", 47.671169,-122.398224
"18820","32ND AVE NW & NW 60TH ST","", 47.672405,-122.398254
"18830","32ND AVE NW & NW 62ND ST","", 47.673882,-122.398277
"18840","32ND AVE NW & NW 64TH ST","", 47.675385,-122.398277
"18850","32ND AVE NW & NW 66TH ST","", 47.676773,-122.398270
"18860","32ND AVE NW & NW 69TH ST","", 47.678665,-122.398277
"18870","32ND AVE NW & NW 71ST ST","", 47.680439,-122.398293
"18880","32ND AVE NW & NW 73RD ST","", 47.681858,-122.398293
"18890","32ND AVE NW & NW 75TH ST","", 47.683239,-122.398201
"18900","32ND AVE NW & NW 77TH ST","", 47.685089,-122.398216
"18910","32ND AVE NW & NW 80TH ST","", 47.686989,-122.398201
"18920","32ND AVE NW & 8200 BLOCK","", 47.688595,-122.398201
"18930","32ND AVE NW & LOYAL WAY NW","", 47.690022,-122.398201
"18940","GOLDEN GDNS DR NW & NW 87TH ST","", 47.692593,-122.398720
"18941","GOLDEN GDNS DR NW & LOYAL AVE NW","", 47.693810,-122.399323
"18942","VIEW AVE NW & GOLDEN GDNS DR NW","", 47.694286,-122.400757
"18990","FAUNTLEROY WAY SW & SW MORGAN ST","", 47.544998,-122.386086
"19000","FAUNTLEROY WAY SW & SW JUNEAU ST","", 47.550434,-122.381996
"19010","FAUNTLEROY WAY SW & SW DAWSON ST","", 47.555935,-122.381409
"19020","FAUNTLEROY WAY SW & SW ALASKA ST","", 47.560497,-122.381371
"19080","24TH AVE NW & NW 87TH ST","", 47.692383,-122.387474
"19090","24TH AVE NW & NW 90TH ST","", 47.694759,-122.387474
"19110","24TH AVE NW & NW 95TH ST","", 47.698315,-122.387459
"19120","24TH AVE NW & NW 96TH ST","", 47.699028,-122.387459
"19130","NW NEPTUNE PL & 24TH AVE NW","", 47.700645,-122.387749
"19140","TRITON DR NW & NW ESPLANADE ST","", 47.701317,-122.390579
"19150","TRITON DR NW & 27TH AVE NW","", 47.700054,-122.392532
"19160","TRITON DR NW & NW GOLDEN DR","", 47.698334,-122.393677
"19170","28TH AVE NW & NW 93RD ST","", 47.696575,-122.393005
"19180","28TH AVE NW & NW 90TH ST","", 47.693977,-122.393036
"19190","28TH AVE NW & NW 87TH ST","", 47.692081,-122.393051
"19200","28TH AVE NW & NW 85TH ST","", 47.690639,-122.393089
"19210","NW 85TH ST & EARL AVE NW","", 47.690502,-122.391617
"19240","24TH AVE NW & NW 85TH ST","", 47.690327,-122.387711
"19250","24TH AVE NW & NW 83RD ST","", 47.688824,-122.387711
"19260","24TH AVE NW & NW 80TH ST","", 47.686607,-122.387695
"19270","24TH AVE NW & NW 77TH ST","", 47.684727,-122.387680
"19280","24TH AVE NW & NW 75TH ST","", 47.682991,-122.387665
"19300","24TH AVE NW & NW 70TH ST","", 47.679203,-122.387642
"19320","24TH AVE NW & NW 65TH ST","", 47.675556,-122.387695
"19340","24TH AVE NW & NW 61ST ST","", 47.672901,-122.387695
"19360","24TH AVE NW & NW 57TH ST","", 47.669964,-122.387695
"19380","ELLIOTT AVE W & W ROY ST","", 47.625984,-122.367653
"19390","ELLIOTT AVE W & W MERCER ST","", 47.624531,-122.365662
"19410","ELLIOTT AVE W & W HARRISON ST","", 47.622314,-122.363037
"19420","WESTERN AVE W & ELLIOTT AVE W","", 47.620617,-122.360909
"19440","DENNY WAY & 1ST AVE N","", 47.618675,-122.355919
"19460","WESTERN AVE W & ELLIOTT AVE W","", 47.620888,-122.361031
"19470","ELLIOTT AVE W & 4TH AVE W","", 47.621532,-122.361847
"19480","ELLIOTT AVE W & 6TH AVE W","", 47.623352,-122.364006
"19490","ELLIOTT AVE W & W MERCER ST","", 47.625439,-122.366615
"19500","ELLIOTT AVE W & W MERCER PL","", 47.626408,-122.367958
"19510","24TH AVE NW & NW 57TH ST","", 47.670300,-122.387489
"19530","24TH AVE NW & NW 61ST ST","", 47.673363,-122.387489
"19550","24TH AVE NW & NW 65TH ST","", 47.676140,-122.387436
"19570","24TH AVE NW & NW 70TH ST","", 47.679733,-122.387451
"19590","24TH AVE NW & NW 75TH ST","", 47.683372,-122.387459
"19600","24TH AVE NW & NW 77TH ST","", 47.685150,-122.387489
"19610","24TH AVE NW & NW 80TH ST","", 47.687008,-122.387489
"19620","24TH AVE NW & NW 83RD ST","", 47.688614,-122.387505
"19630","24TH AVE NW & NW 85TH ST","", 47.690922,-122.387489
"19640","SW BRACE PT DR & SW WILDWOOD PL","", 47.520477,-122.389336
"19650","SW WILDWOOD PL & 45TH AVE SW","", 47.521000,-122.390617
"19670","FAUNTLEROY WAY SW & SW BARTON ST","", 47.523178,-122.392899
"19700","FAUNTLEROY WAY SW & SW ROSE ST","", 47.529995,-122.392609
"19740","FAUNTLEROY WAY SW & SW WEBSTER ST","", 47.535973,-122.392380
"19750","FAUNTLEROY WAY SW & SW MYRTLE ST","", 47.539867,-122.390511
"19790","CALIFORNIA AVE SW & FAUNTLEROY WAY SW","", 47.545311,-122.387108
"19810","CALIFORNIA AVE SW & SW RAYMOND ST","", 47.548752,-122.387039
"19830","CALIFORNIA AVE SW & SW FINDLAY ST","", 47.552368,-122.386932
"19850","CALIFORNIA AVE SW & SW DAWSON ST","", 47.555946,-122.386833
"19861","SW EDMUNDS ST & 44TH AVE SW","", 47.559406,-122.388023
"19862","SW ALASKA ST & CALIFORNIA AVE SW","", 47.561054,-122.386871
"19875","SW ALASKA ST & 42ND AVE SW","", 47.561012,-122.384987
"19898","SW AVALON WAY & SW BRADFORD ST","", 47.568867,-122.370850
"19900","FAUNTLEROY WAY SW & SW OREGON ST","", 47.562943,-122.379059
"19920","SW AVALON WAY & SW GENESEE ST","", 47.564590,-122.372505
"19930","SW AVALON WAY & SW YANCY ST","", 47.567883,-122.370674
"19940","SW AVALON WAY & SW CHARLESTOWN ST","", 47.570095,-122.370605
"19980","SW AVALON WAY & SW GENESEE ST","", 47.564774,-122.372612
"20040","SW ALASKA ST & 42ND AVE SW","", 47.561153,-122.385315
"20041","SW ALASKA ST & CALIFORNIA AVE SW","", 47.561203,-122.387077
"20050","CALIFORNIA AVE SW & ERSKINE WAY SW","", 47.558899,-122.386940
"20070","CALIFORNIA AVE SW & SW DAWSON ST","", 47.555511,-122.387039
"20090","CALIFORNIA AVE SW & SW FINDLAY ST","", 47.551865,-122.387146
"20110","CALIFORNIA AVE SW & SW RAYMOND ST","", 47.548256,-122.387260
"20130","FAUNTLEROY WAY SW & CALIFORNIA AVE SW","", 47.544865,-122.387680
"20170","FAUNTLEROY WAY SW & SW MYRTLE ST","", 47.539295,-122.390984
"20190","FAUNTLEROY WAY SW & SW WEBSTER ST","", 47.535629,-122.392723
"20220","FAUNTLEROY WAY SW & SW ROSE ST","", 47.529564,-122.392830
"20250","FAUNTLEROY WAY SW & SW BARTON ST","", 47.523006,-122.393074
"20270","SW WILDWOOD PL & 46TH AVE SW","", 47.520935,-122.390892
"20530","W EMERSON ST & MAGNOLIA BLVD W","", 47.654167,-122.411751
"20540","WEST VIEWMONT WAY W & W RUFFNER ST","", 47.651917,-122.410538
"20550","WEST VIEWMONT WAY W & W BERTONA ST","", 47.650265,-122.409660
"20560","WEST VIEWMONT WAY W & W DRAVUS ST","", 47.648430,-122.409676
"20570","WEST VIEWMONT WAY W & W BARRETT ST","", 47.646877,-122.409676
"20580","WEST VIEWMONT WAY W & W ARMOUR ST","", 47.645046,-122.409729
"20590","WEST VIEWMONT WAY W & W RAYE ST","", 47.643280,-122.409752
"20600","WEST VIEWMONT WAY W & 42ND AVE W","", 47.641399,-122.409782
"20610","WEST VIEWMONT WAY W & W PARKMONT PL","", 47.640285,-122.409554
"20620","WEST VIEWMONT WAY W & MONTAVISTA PL W","", 47.638474,-122.407188
"20630","WEST VIEWMONT WAY W & CONSTANCE DR W","", 47.637344,-122.406219
"20640","VIEWMONT WAY W & EDGEMONT PL W","", 47.637707,-122.403732
"20650","35TH AVE W & W MCGRAW ST","", 47.639469,-122.402283
"20660","W MCGRAW ST & 33RD AVE W","", 47.639492,-122.399963
"20670","W MCGRAW ST & 32ND AVE W","", 47.639492,-122.397896
"20680","CONDON WAY W & W CROCKETT ST","", 47.637772,-122.395782
"20681","CONDON WAY W & W NEWTON ST","", 47.636696,-122.395058
"20690","CONDON WAY W & W HOWE ST","", 47.635773,-122.394386
"20700","28TH AVE W & W BLAINE ST","", 47.634876,-122.393158
"20710","28TH AVE W & W EATON ST","", 47.633114,-122.393188
"20720","W GALER ST & THORNDYKE AVE W","", 47.632252,-122.391434
"20730","MAGNOLIA BRDG & PIER 91","", 47.633423,-122.382820
"20830","DENNY WAY & BROAD ST","", 47.618656,-122.350716
"20860","MAGNOLIA BRDG & PIER 91","", 47.633549,-122.382896
"20880","THORNDYKE AVE W & W HAYES ST","", 47.634010,-122.391762
"20890","28TH AVE W & W BLAINE ST","", 47.634918,-122.392952
"20900","CONDON WAY W & 29TH AVE W","", 47.636181,-122.394302
"20910","CONDON WAY W & W CROCKETT ST","", 47.637577,-122.395409
"20930","W MCGRAW ST & 33RD AVE W","", 47.639626,-122.399979
"20940","VIEWMONT WAY W & 35TH AVE W","", 47.639019,-122.402199
"20950","VIEWMONT WAY W & EDGEMONT PL W","", 47.637913,-122.403732
"20960","WEST VIEWMONT WAY W & CONSTANCE DR W","", 47.637333,-122.405907
"20970","WEST VIEWMONT WAY W & MONTAVISTA PL W","", 47.638710,-122.407272
"20980","WEST VIEWMONT WAY W & W PARKMONT PL","", 47.640213,-122.409279
"20990","WEST VIEWMONT WAY W & WESTMONT WAY W","", 47.642365,-122.409576
"21000","WEST VIEWMONT WAY W & W RAYE ST","", 47.643417,-122.409554
"21010","WEST VIEWMONT WAY W & W ARMOUR ST","", 47.644936,-122.409523
"21020","WEST VIEWMONT WAY W & W BARRETT LN","", 47.647083,-122.409470
"21030","WEST VIEWMONT WAY W & W DRAVUS ST","", 47.648777,-122.409470
"21040","WEST VIEWMONT WAY W & W BERTONA ST","", 47.650650,-122.409454
"21050","WEST VIEWMONT WAY W & W RUFFNER ST","", 47.652233,-122.410561
"21080","SW ROXBURY ST & 15TH AVE SW","", 47.517303,-122.353569
"21090","SW ROXBURY ST & 12TH AVE SW","", 47.517262,-122.350334
"21104","8TH AVE SW & SW 99TH ST","", 47.515678,-122.345390
"21110","SW ROXBURY ST & 8TH AVE SW","", 47.517231,-122.345062
"21120","SW ROXBURY ST & 5TH AVE SW","", 47.517170,-122.341125
"21140","OLSON PL SW & 3RD AVE SW","", 47.519730,-122.338219
"21141","OLSON/MYERS P&R","", 47.519611,-122.336197
"21150","OLSON PL SW & 3RD AVE SW","", 47.519691,-122.338547
"21170","SW ROXBURY ST & 5TH PL SW","", 47.517353,-122.341957
"21211","SW ROXBURY ST & 35TH AVE SW","", 47.517410,-122.376328
"21230","SW ROXBURY ST & 30TH AVE SW","", 47.517357,-122.371506
"21240","SW ROXBURY ST & 28TH AVE SW","", 47.517323,-122.368256
"21250","SW ROXBURY ST & 26TH AVE SW","", 47.517296,-122.365456
"21280","SW ROXBURY ST & 20TH AVE SW","", 47.517296,-122.358894
"21290","SW ROXBURY ST & 17TH AVE SW","", 47.517296,-122.356766
"21292","16TH AVE SW & SW ROXBURY ST","", 47.517849,-122.355057
"21295","16TH AVE SW & SW BARTON ST","", 47.521278,-122.355019
"21310","DELRIDGE WAY SW & SW CAMBRIDGE ST","", 47.519421,-122.356888
"21320","DELRIDGE WAY SW & SW BARTON ST","", 47.520947,-122.358269
"21350","16TH AVE SW & SW HENDERSON ST","", 47.523144,-122.355003
"8730","RAINIER AVE S & LETITIA AVE S","", 47.569736,-122.290817
"8740","RAINIER AVE S & S ANDOVER ST","", 47.568039,-122.289421
"8760","RAINIER AVE S & S GENESEE ST","", 47.563938,-122.288246
"8780","RAINIER AVE S & S ALASKA ST","", 47.560547,-122.286980
"8790","RAINIER AVE S & S EDMUNDS ST","", 47.558697,-122.285583
"8810","RAINIER AVE S & S DAWSON ST","", 47.555458,-122.283112
"8820","RAINIER AVE S & S BRANDON ST","", 47.553322,-122.279671
"8840","RAINIER AVE S & S ORCAS ST","", 47.550926,-122.277634
"8850","RAINIER AVE S & S KENNY ST","", 47.548695,-122.277061
"8870","RAINIER AVE S & S GRAHAM ST","", 47.545670,-122.275665
"8890","RAINIER AVE S & S HOLLY ST","", 47.542221,-122.272743
"8905","RAINIER AVE S & S FRONTENAC ST","", 47.539467,-122.270966
"8920","RAINIER AVE S & S OTHELLO ST","", 47.536625,-122.270294
"8940","RAINIER AVE S & S HOLDEN ST","", 47.533455,-122.270088
"8970","RAINIER AVE S & S ROSE ST","", 47.528805,-122.270088
"8990","RAINIER AVE S & S CLOVERDALE ST","", 47.525925,-122.270088
"9000","RAINIER AVE S & S HENDERSON ST","", 47.522980,-122.270088
"9010","RAINIER AVE S & 51ST AVE S","", 47.520458,-122.270065
"9030","RAINIER AVE S & 54TH AVE S","", 47.519814,-122.264709
"9040","RAINIER AVE S & 57TH AVE S","", 47.520088,-122.262398
"9050","WATERS AVE S & S FLETCHER ST","", 47.518974,-122.261307
"9060","WATERS AVE S & S CARVER ST","", 47.517742,-122.259712
"9070","WATERS AVE S & S ROXBURY ST","", 47.516724,-122.258385
"9080","WATERS AVE S & 61ST AVE S","", 47.515762,-122.257141
"9090","WATERS AVE S & 62ND AVE S","", 47.514782,-122.255966
"9110","62ND AVE S & S COOPER ST","", 47.511417,-122.255981
"9130","BROOKLYN AVE NE & NE 50TH ST","", 47.665634,-122.314102
"9132","UNIVERSITY WAY NE & NE 50TH ST","", 47.664135,-122.313187
"9133","UNIVERSITY WAY NE & NE 45TH ST","", 47.662273,-122.313217
"9134","UNIVERSITY WAY NE & NE 43RD ST","", 47.659847,-122.313271
"9138","NE CAMPUS PKWY & 12TH AVE NE","", 47.656300,-122.315460
"9140","UNIVERSITY BRIDGE & NE 40TH ST","", 47.655766,-122.318520
"9141","EASTLAKE AVE E & HARVARD AVE E","", 47.650600,-122.322151
"9142","UNIVERSITY WAY NE & NE 41ST ST","", 47.656864,-122.313354
"9145","NE CAMPUS PKWY & UNIVERSITY WAY NE","", 47.656288,-122.313652
"9147","BROOKLYN AVE NE & NE CAMPUS PKWY","", 47.656498,-122.314308
"9150","EASTLAKE AVE E & E ALLISON ST","", 47.648613,-122.323692
"9170","EASTLAKE AVE E & E HAMLIN ST","", 47.645729,-122.325920
"9190","EASTLAKE AVE E & E LOUISA ST","", 47.641865,-122.325989
"9200","EASTLAKE AVE E & E LYNN ST","", 47.639469,-122.325989
"9220","EASTLAKE AVE E & E NEWTON ST","", 47.636547,-122.325935
"9240","EASTLAKE AVE E & E GARFIELD ST","", 47.633392,-122.325836
"9271","EASTLAKE AVE E & ALOHA ST","", 47.627697,-122.329338
"9300","EASTLAKE AVE E & MERCER ST","", 47.624004,-122.329269
"9310","EASTLAKE AVE E & HARRISON ST","", 47.621719,-122.329254
"9320","EASTLAKE AVE E & STEWART ST","", 47.620071,-122.329239
"9370","EASTLAKE AVE E & STEWART ST","", 47.619591,-122.329033
"9380","EASTLAKE AVE E & HARRISON ST","", 47.621830,-122.329048
"9400","EASTLAKE AVE E & MERCER ST","", 47.624195,-122.329063
"9420","EASTLAKE AVE E & ALOHA ST","", 47.627033,-122.329117
"9460","EASTLAKE AVE E & E GARFIELD ST","", 47.634109,-122.325386
"9480","EASTLAKE AVE E & E HOWE ST","", 47.636162,-122.325577
"9500","EASTLAKE AVE E & E LYNN ST","", 47.639931,-122.325798
"9510","EASTLAKE AVE E & E LOUISA ST","", 47.642281,-122.325783
"9530","EASTLAKE AVE E & E HAMLIN ST","", 47.645954,-122.325516
"9550","EASTLAKE AVE E & E ALLISON ST","", 47.648945,-122.323204
"9560","EASTLAKE AVE E & HARVARD AVE E","", 47.650421,-122.322060
"9570","NE CAMPUS PKWY & 11TH AVE NE","", 47.655964,-122.316849
"9575","NE CAMPUS PKWY & UNIVERSITY WAY NE","", 47.655918,-122.313354
"9580","NE CAMPUS PKWY & BROOKLYN AVE NE","", 47.655922,-122.313980
"9581","UNIVERSITY WAY NE & NE 41ST ST","", 47.657387,-122.313133
"9582","UNIVERSITY WAY NE & NE 43RD ST","", 47.659767,-122.313065
"9584","UNIVERSITY WAY NE & NE 45TH ST","", 47.662067,-122.313011
"9586","NE 50TH ST & UNIVERSITY WAY NE","", 47.664974,-122.313530
"9589","ROOSEVELT WAY NE & NE 50TH ST","", 47.664742,-122.317505
"9600","ROOSEVELT WAY NE & NE 45TH ST","", 47.661945,-122.317558
"9610","ROOSEVELT WAY NE & NE 42ND ST","", 47.658455,-122.317879
"9620","EASTLAKE AVE NE & NE 41ST ST","", 47.657074,-122.316849
"9630","11TH AVE NE & NE 42ND ST","", 47.658573,-122.316551
"9650","11TH AVE NE & NE 45TH ST","", 47.661564,-122.316467
"9660","11TH AVE NE & NE 47TH ST","", 47.663368,-122.316254
"9670","NE 125TH ST & LK CITY WAY NE","", 47.719208,-122.294708
"9680","NE 125TH ST & 33RD AVE NE","", 47.719196,-122.292847
"9690","NE 125TH ST & 35TH AVE NE","", 47.719185,-122.291084
"9710","NE 125TH ST & 39TH AVE NE","", 47.719147,-122.286400
"9720","SAND PT WAY NE & BARTLETT AVE NE","", 47.717060,-122.283836
"9730","SAND PT WAY NE & NE 120TH ST","", 47.716022,-122.283218
"9750","SAND PT WAY NE & NE 115TH ST","", 47.712372,-122.281937
"9770","SAND PT WAY NE & NE 110TH ST","", 47.708622,-122.280144
"9790","SAND PT WAY NE & NE 106TH ST","", 47.705093,-122.278435
"9800","SAND PT WAY NE & NE 103RD ST","", 47.702682,-122.277771
"9820","SAND PT WAY NE & NE 97TH ST","", 47.699654,-122.277824
"9830","SAND PT WAY NE & NE 95TH ST","", 47.697044,-122.277527
"9840","SAND PT WAY NE & NE 93RD ST","", 47.695877,-122.276596
"9850","SAND PT WAY NE & MATHEWS AVE NE","", 47.693771,-122.274055
"9860","SAND PT WAY NE & INVERNESS DR NE","", 47.692837,-122.271362
"9895","SAND PT WAY NE & NE 77TH ST","", 47.684471,-122.264397
"9900","SAND PT WAY NE & NE 74TH ST","", 47.681820,-122.263763
"9912","SAND PT WAY NE & NE 70TH ST","", 47.679089,-122.263710
"9920","SAND PT WAY NE & NE 65TH ST","", 47.675888,-122.263641
"9930","SAND PT WAY NE & NE 62ND ST","", 47.673637,-122.266251
"9950","SAND PT WAY NE & NE 58TH ST","", 47.670586,-122.270515
"9970","SAND PT WAY NE & IVANHOE PL NE","", 47.668499,-122.273865
"9972","SAND PT WAY NE & PRINCETON AVE NE","", 47.668484,-122.276482
"9974","SAND PT WAY NE & 44TH AVE NE","", 47.666641,-122.281242
"9976","SAND PT WAY NE & NE 50TH ST","", 47.664711,-122.283249
"9978","SAND PT WAY NE & 40TH AVE NE","", 47.662472,-122.285477
"9980","NE 55TH ST & PRINCETON AVE NE","", 47.669342,-122.276146
"9990","NE 55TH ST & 45TH AVE NE","", 47.669025,-122.279846
"10000","NE 55TH ST & 43RD AVE NE","", 47.668575,-122.283653
"10005","40TH AVE NE & NE 51ST ST","", 47.665886,-122.284897
"10010","NE 55TH ST & 39TH AVE NE","", 47.668579,-122.285667
"10020","NE 55TH ST & 37TH AVE NE","", 47.668579,-122.288300
"10030","NE 55TH ST & 35TH AVE NE","", 47.668579,-122.290512
"10040","NE 55TH ST & 33RD AVE NE","", 47.668583,-122.293015
"10050","NE 55TH ST & 30TH AVE NE","", 47.668591,-122.295448
"10060","NE 55TH ST & 27TH AVE NE","", 47.668594,-122.298859
"10070","NE 55TH ST & 25TH AVE NE","", 47.668594,-122.300995
"10083","RAVENNA AVE NE & RAVENNA PL NE","", 47.668480,-122.303795
"10100","NE RAVENNA BLVD & PARK RD NE","", 47.669563,-122.305420
"10110","20TH AVE NE & NE 55TH ST","", 47.668274,-122.306595
"10120","20TH AVE NE & NE 52ND ST","", 47.666283,-122.306602
"10130","NE 50TH ST & 19TH AVE NE","", 47.664928,-122.307114
"10145","NE 50TH ST & 16TH AVE NE","", 47.664959,-122.311172
"10245","BOREN AVE & HOWELL ST","", 47.616329,-122.331841
"10370","NE 50TH ST & UNIVERSITY WAY NE","", 47.664829,-122.312660
"10380","NE 50TH ST & 16TH AVE NE","", 47.664814,-122.310432
"10400","20TH AVE NE & NE 50TH ST","", 47.665028,-122.306404
"10410","20TH AVE NE & NE 52ND ST","", 47.666641,-122.306404
"10420","20TH AVE NE & NE 54TH ST","", 47.668171,-122.306389
"10430","NE RAVENNA BLVD & 21ST AVE NE","", 47.669273,-122.305489
"10445","RAVENNA AVE NE & NE 54TH ST","", 47.667995,-122.303955
"10460","NE 55TH ST & 25TH AVE NE","", 47.668449,-122.300217
"10470","NE 55TH ST & 27TH AVE NE","", 47.668449,-122.298218
"10480","NE 55TH ST & 30TH AVE NE","", 47.668449,-122.295074
"10490","NE 55TH ST & 33RD AVE NE","", 47.668449,-122.292320
"10500","NE 55TH ST & 35TH AVE NE","", 47.668446,-122.290390
"10510","NE 55TH ST & 36TH AVE NE","", 47.668446,-122.288803
"10515","40TH AVE NE & NE 50TH ST","", 47.665092,-122.284698
"10525","NE 55TH ST & 40TH AVE NE","", 47.668442,-122.285049
"10550","NE 55TH ST & 45TH AVE NE","", 47.668938,-122.279518
"10560","NE 55TH ST & PRINCETON AVE NE","", 47.669182,-122.275909
"10561","SAND PT WAY NE & 38TH AVE NE","", 47.661575,-122.286484
"10562","SAND PT WAY NE & 40TH AVE NE","", 47.663448,-122.284119
"10564","SAND PT WAY NE & NE 50TH ST","", 47.664654,-122.282867
"10566","SAND PT WAY NE & NE 52ND ST","", 47.666649,-122.280800
"10568","SAND PT WAY NE & PRINCETON AVE NE","", 47.668194,-122.275978
"10570","SAND PT WAY NE & NE 55TH ST","", 47.668327,-122.273605
"10580","SAND PT WAY NE & NE WINDERMERE RD","", 47.670033,-122.270813
"10600","SAND PT WAY NE & NE 61ST ST","", 47.672989,-122.266663
"10620","SAND PT WAY NE & NE 65TH ST","", 47.675968,-122.263451
"10630","SAND PT WAY NE & NE 70TH ST","", 47.679432,-122.263519
"10640","SAND PT WAY NE & NE 74TH ST","", 47.681759,-122.263565
"10650","SAND PT WAY NE & NE 77TH ST","", 47.685005,-122.264465
"10653","NOAA & BUILDING 1","", 47.686543,-122.257362
"10654","NE NOAA DR & NOAA ACS","", 47.686085,-122.259834
"10657","NE NOAA DR & GUARD SHACK","", 47.686077,-122.259285
"10658","NOAA & BUILDING 3","", 47.685989,-122.255554
"10680","SAND PT WAY NE & INVERNESS DR NE","", 47.692757,-122.270775
"10700","SAND PT WAY NE & MATTHEWS PL NE","", 47.694523,-122.275177
"10710","SAND PT WAY NE & NE 93RD ST","", 47.696144,-122.276566
"10720","SAND PT WAY NE & NE 95TH ST","", 47.697353,-122.277527
"10730","SAND PT WAY NE & NE 97TH ST","", 47.699093,-122.277634
"10750","SAND PT WAY NE & NE 103RD ST","", 47.703087,-122.277565
"10760","SAND PT WAY NE & NE 106TH ST","", 47.705036,-122.278168
"10780","SAND PT WAY NE & NE 110TH ST","", 47.709229,-122.280212
"10800","SAND PT WAY NE & NE 115TH ST","", 47.712620,-122.281830
"10820","SAND PT WAY NE & NE 120TH ST","", 47.716011,-122.283005
"10830","SAND PT WAY NE & NE 123RD ST","", 47.717598,-122.283928
"10840","SAND PT WAY NE & NE 125TH ST","", 47.719231,-122.285789
"10860","NE 125TH ST & 35TH AVE NE","", 47.719322,-122.291283
"10870","NE 125TH ST & 33RD AVE NE","", 47.719337,-122.293205
"10908","12TH AVE NE & NE 45TH ST","", 47.661831,-122.315529
"10910","12TH AVE NE & NE 47TH ST","", 47.662682,-122.315392
"10911","NE 45TH ST & UNIVERSITY WAY NE","", 47.661205,-122.313477
"10912","15TH AVE NE & NE 43RD ST","", 47.659370,-122.312096
"10914","15TH AVE NE & NE CAMPUS PKWY","", 47.656422,-122.312164
"10915","HARVARD AVE E & EASTLAKE AVE E","", 47.650249,-122.321999
"10916","HARVARD AVE E & EASTLAKE AVE E","", 47.650162,-122.322205
"10917","15TH AVE NE & NE 40TH ST","", 47.655048,-122.312210
"10920","HARVARD AVE E & E SHELBY ST","", 47.646759,-122.322205
"10940","10TH AVE E & E ROANOKE ST","", 47.642937,-122.320160
"10950","10TH AVE E & E MILLER ST","", 47.641163,-122.320160
"10970","10TH AVE E & E NEWTON ST","", 47.637028,-122.320183
"10990","10TH AVE E & E GALER ST","", 47.632126,-122.320305
"11010","10TH AVE E & E PROSPECT ST","", 47.628738,-122.320320
"11011","BROADWAY  E & E ROY ST","", 47.625248,-122.321114
"11012","E ALOHA ST & BROADWAY  E","", 47.626766,-122.320961
"11025","BOREN AVE & JEFFERSON ST","", 47.606068,-122.322029
"11030","E ROY ST & BROADWAY  E","", 47.625195,-122.320816
"11033","BOREN AVE & COLUMBIA ST","", 47.608227,-122.324013
"11035","BOREN AVE & MADISON ST","", 47.609581,-122.325256
"11040","BROADWAY  E & E REPUBLICAN ST","", 47.622894,-122.321030
"11045","BOREN AVE & SENECA ST","", 47.611023,-122.326561
"11050","BROADWAY  E & E THOMAS ST","", 47.620815,-122.320992
"11055","BOREN AVE & PIKE ST","", 47.613827,-122.329132
"11060","BROADWAY & E DENNY WAY","", 47.618530,-122.320946
"11065","BOREN AVE & PIKE ST","", 47.613541,-122.329102
"11070","BROADWAY & E PINE ST","", 47.616192,-122.320923
"11075","BOREN AVE & SENECA ST","", 47.610516,-122.326332
"11080","E PINE ST & BROADWAY","", 47.615303,-122.321495
"11085","BOREN AVE & MADISON ST","", 47.609085,-122.325035
"11087","BOREN AVE & COLUMBIA ST","", 47.607594,-122.323669
"11090","E PINE ST & BELMONT AVE","", 47.615295,-122.324776
"11095","BOREN AVE & JAMES ST","", 47.606216,-122.322411
"11100","E PINE ST & BELLEVUE AVE","", 47.615299,-122.327271
"11130","PIKE ST & CONVENTION PL","", 47.612377,-122.331329
"11132","PIKE ST & BOREN AVE","", 47.613579,-122.328445
"11140","E PINE ST & SUMMIT AVE","", 47.615150,-122.325256
"11150","E PINE ST & BROADWAY","", 47.615162,-122.321617
"11160","BROADWAY & E PINE ST","", 47.616695,-122.320717
"11170","BROADWAY & E HOWELL ST","", 47.617886,-122.320747
"11180","BROADWAY  E & E JOHN ST","", 47.620155,-122.320770
"11190","BROADWAY  E & E HARRISON ST","", 47.622196,-122.320816
"11191","10TH AVE E & E MERCER ST","", 47.623951,-122.319992
"11200","BROADWAY  E & E MERCER ST","", 47.624611,-122.320839
"11230","10TH AVE E & E PROSPECT ST","", 47.628860,-122.320114
"11250","10TH AVE E & E GALER ST","", 47.632214,-122.320099
"11270","10TH AVE E & E HOWE ST","", 47.636162,-122.319992
"11290","10TH AVE E & E MILLER ST","", 47.641571,-122.319969
"11300","E ROANOKE ST & BROADWAY  E","", 47.643261,-122.320747
"11330","HARVARD AVE E & E SHELBY ST","", 47.647110,-122.321999
"11352","15TH AVE NE & NE 42ND ST","", 47.658669,-122.311905
"11354","NE 45TH ST & BROOKLYN AVE NE","", 47.661346,-122.313889
"11370","15TH AVE E & E GALER ST","", 47.632389,-122.312607
"11390","15TH AVE E & E PROSPECT ST","", 47.628479,-122.312668
"11400","15TH AVE E & E ALOHA ST","", 47.626682,-122.312668
"11410","15TH AVE E & E ROY ST","", 47.625027,-122.312698
"11420","15TH AVE E & E MERCER ST","", 47.623970,-122.312714
"11430","15TH AVE E & E REPUBLICAN ST","", 47.622894,-122.312737
"11440","15TH AVE E & E THOMAS ST","", 47.620518,-122.312820
"11450","15TH AVE E & E JOHN ST","", 47.619804,-122.312820
"11460","15TH AVE & E DENNY WAY","", 47.618301,-122.312851
"11470","15TH AVE & E OLIVE ST","", 47.616230,-122.312866
"11480","E PINE ST & 15TH AVE","", 47.615356,-122.313148
"11500","E PINE ST & 11TH AVE","", 47.615318,-122.318489
"11510","E PINE ST & 10TH AVE","", 47.615181,-122.319092
"11520","E PINE ST & 12TH AVE","", 47.615200,-122.316498
"11535","E PINE ST & 15TH AVE","", 47.615211,-122.312286
"11540","15TH AVE & E PINE ST","", 47.615604,-122.312668
"11550","15TH AVE & E HOWELL ST","", 47.617832,-122.312660
"11560","15TH AVE E & E JOHN CT","", 47.619709,-122.312630
"11570","15TH AVE E & E HARRISON ST","", 47.622570,-122.312538
"11590","15TH AVE E & E ROY ST","", 47.625423,-122.312492
"11600","15TH AVE E & E ALOHA ST","", 47.627098,-122.312469
"11610","15TH AVE E & E PROSPECT ST","", 47.628902,-122.312454
"11620","15TH AVE E & E HIGHLAND DR","", 47.630833,-122.312424
"11630","GRANDVIEW PL E & E GALER ST","", 47.632523,-122.311821
"11640","GRANDVIEW PL E & E GARFIELD ST","", 47.634079,-122.311798
"11680","MT RANIER DR S & S HANFORD ST","", 47.575657,-122.284843
"11690","MOUNT RAINIER DR S & S RIDGEWAY PL","", 47.576645,-122.286415
"11700","S MCCLELLAN ST & LAKE PK DR S","", 47.578407,-122.288605
"11720","S MCCLELLAN ST & 31ST AVE S","", 47.578411,-122.292671
"11730","31ST AVE S & S LANDER ST","", 47.579861,-122.292908
"11750","31ST AVE S & S COLLEGE ST","", 47.582706,-122.292908
"11770","31ST AVE S & S PLUM ST","", 47.585102,-122.292908
"11790","31ST AVE S & S MASSACHUSETTS ST","", 47.588161,-122.292442
"11800","31ST AVE S & S DAY ST","", 47.590534,-122.292305
"11820","31ST AVE S & S NORMAN ST","", 47.593506,-122.292656
"11840","31ST AVE S & S DEARBORN ST","", 47.595921,-122.292603
"11860","31ST AVE S & S KING ST","", 47.597908,-122.292519
"11870","S JACKSON ST & 30TH AVE S","", 47.599251,-122.293640
"11880","S JACKSON ST & 28TH AVE S","", 47.599285,-122.296112
"11890","S JACKSON ST & MARTIN L KING JR WAY S","", 47.599304,-122.297752
"11910","S JACKSON ST & 23RD AVE S","", 47.599346,-122.302032
"11920","S JACKSON ST & 22ND AVE S","", 47.599335,-122.304642
"11940","S JACKSON ST & 18TH AVE S","", 47.599304,-122.309349
"11960","S JACKSON ST & RAINIER AVE S","", 47.599140,-122.313576
"11980","S JACKSON ST & 18TH AVE S","", 47.599171,-122.308624
"11990","S JACKSON ST & 20TH AVE S","", 47.599190,-122.305992
"12010","S JACKSON ST & 23RD AVE S","", 47.599213,-122.301636
"12030","S JACKSON ST & 28TH AVE S","", 47.599148,-122.295952
"12040","S JACKSON ST & 30TH AVE S","", 47.599117,-122.293480
"12050","31ST AVE S & S KING ST","", 47.597744,-122.292740
"12070","31ST AVE S & S DEARBORN ST","", 47.595512,-122.292809
"12080","31ST AVE S & S NORMAN ST","", 47.593075,-122.292877
"12090","31ST AVE S & S IRVING ST","", 47.590973,-122.292496
"12110","31ST AVE S & S MASSACHUSETTS ST","", 47.587872,-122.292648
"12130","31ST AVE S & S PLUM ST","", 47.584957,-122.293098
"12140","31ST AVE S & S WALKER ST","", 47.583424,-122.293098
"12160","31ST AVE S & S LANDER ST","", 47.579422,-122.293106
"12170","S MCCLELLAN ST & 31ST AVE S","", 47.578274,-122.292587
"12190","S MCCLELLAN ST & S MOUNT BAKER BLVD","", 47.578274,-122.288696
"12200","MOUNT RAINIER DR S & 37TH PL S","", 47.576546,-122.286552
"12210","E MCGILVRA ST & 42ND AVE E","", 47.640774,-122.278290
"12220","42ND AVE E & E LYNN ST","", 47.638863,-122.278534
"12230","42ND AVE E & E NEWTON ST","", 47.636726,-122.278564
"12240","42ND AVE E & E MADISON ST","", 47.635605,-122.278572
"12250","E MADISON ST & 41ST AVE E","", 47.634640,-122.279846
"12260","E MADISON ST & E GARFIELD ST","", 47.633457,-122.281609
"12270","E MADISON ST & 38TH AVE E","", 47.631790,-122.284065
"12280","E MADISON ST & 36TH AVE E","", 47.629974,-122.286743
"12290","E MADISON ST & 34TH AVE E","", 47.628902,-122.288345
"12310","E MADISON ST & LK WASHINGTON BLVD","", 47.625919,-122.292725
"12322","E MADISON ST & 28TH AVE E","", 47.623165,-122.296799
"12340","E MADISON ST & 25TH AVE E","", 47.620869,-122.300186
"12350","E MADISON ST & 23RD AVE E","", 47.619286,-122.302536
"12351","E MADISON ST & 22ND AVE E","", 47.618298,-122.303986
"12352","E MADISON ST & 20TH AVE","", 47.617352,-122.306129
"12353","E MADISON ST & 19TH AVE","", 47.616619,-122.307877
"12354","E MADISON ST & 17TH AVE","", 47.615520,-122.310516
"12355","E MADISON ST & 15TH AVE","", 47.614361,-122.313316
"12371","E MADISON ST & 15TH AVE","", 47.614586,-122.312370
"12372","E MADISON ST & 17TH AVE","", 47.615459,-122.310265
"12373","E MADISON ST & 18TH AVE","", 47.615955,-122.309082
"12374","E MADISON ST & 19TH AVE","", 47.616859,-122.306923
"12375","E MADISON ST & 20TH AVE","", 47.617363,-122.305702
"12376","E MADISON ST & 22ND AVE","", 47.618172,-122.303886
"12377","E MADISON ST & 23RD AVE E","", 47.619259,-122.302277
"12378","E MADISON ST & 25TH AVE E","", 47.621094,-122.299561
"12380","E MADISON ST & 27TH AVE E","", 47.622490,-122.297508
"12390","E MADISON ST & 29TH AVE E","", 47.624065,-122.295189
"12400","E MADISON ST & LK WASHINGTON BLVD","", 47.626152,-122.292099
"12410","E MADISON ST & 33RD AVE E","", 47.628185,-122.289093
"12420","E MADISON ST & 36TH AVE E","", 47.629948,-122.286499
"12430","E MADISON ST & 38TH AVE E","", 47.631538,-122.284149
"12440","E MADISON ST & 39TH AVE E","", 47.632427,-122.282837
"12450","E MADISON ST & 41ST AVE E","", 47.634403,-122.279915
"12460","43RD AVE E & E BLAINE ST","", 47.634884,-122.277046
"12470","43RD AVE E & E MADISON ST","", 47.636631,-122.277016
"12480","43RD AVE E & E LYNN ST","", 47.639088,-122.276993
"12481","MARTIN L KING JR WAY S & S JUDKINS ST","", 47.591610,-122.297646
"12484","MARTIN L KING JR WAY S & S WALKER ST","", 47.584259,-122.298248
"12485","S WALKER ST & 25TH AVE S","", 47.583714,-122.299629
"12486","MARTIN L KING JR WAY S & S BAYVIEW ST","", 47.581001,-122.296921
"12487","MARTIN L KING JR WAY S & S MASSACHUSETTS","", 47.587894,-122.298164
"12496","S PLUM ST & 25TH AVE S","", 47.585411,-122.300079
"12497","MARTIN L KING JR WAY S & S MASSACHUSETTS","", 47.588676,-122.297836
"12500","26TH AVE S & S NORMAN ST","", 47.593166,-122.298958
"12520","S DEARBORN ST & 26TH AVE S","", 47.595627,-122.299423
"12530","23RD AVE S & S DEARBORN ST","", 47.595985,-122.302124
"12550","23RD AVE S & S JACKSON ST","", 47.599636,-122.302139
"12560","23RD AVE & E YESLER WAY","", 47.601936,-122.302299
"12600","23RD AVE & E JEFFERSON ST","", 47.605900,-122.302879
"12630","23RD AVE S & E YESLER WAY","", 47.601257,-122.302361
"12640","23RD AVE S & S JACKSON ST","", 47.599060,-122.302330
"12660","S DEARBORN ST & 24TH AVE S","", 47.595501,-122.301636
"12670","24TH AVE S & S NORMAN ST","", 47.592743,-122.301277
"12690","34TH AVE & E UNION ST","", 47.612507,-122.289421
"12700","34TH AVE & E MARION ST","", 47.610516,-122.289474
"12712","34TH AVE & E CHERRY ST","", 47.608047,-122.289528
"12720","E CHERRY ST & 32ND AVE","", 47.608032,-122.292000
"12740","E CHERRY ST & MARTIN L KING JR WAY","", 47.608070,-122.296158
"12760","E CHERRY ST & 24TH AVE","", 47.608070,-122.300484
"12770","23RD AVE & E CHERRY ST","", 47.607712,-122.302879
"12780","E JEFFERSON ST & 23RD AVE","", 47.606239,-122.303230
"12790","E JEFFERSON ST & 21ST AVE","", 47.606236,-122.305367
"12805","E JEFFERSON ST & 18TH AVE","", 47.606243,-122.309669
"12820","E JEFFERSON ST & 15TH AVE","", 47.606258,-122.313126
"12840","E JEFFERSON ST & 12TH AVE","", 47.606274,-122.317108
"12860","JEFFERSON ST & BROADWAY","", 47.606129,-122.321152
"12880","JEFFERSON ST & 9TH AVE","", 47.604935,-122.324081
"12890","JAMES ST & 8TH AVE","", 47.605194,-122.325813
"12900","JAMES ST & 8TH AVE","", 47.605164,-122.325500
"12910","9TH AVE & JEFFERSON ST","", 47.604874,-122.324242
"12950","E JEFFERSON ST & 12TH AVE","", 47.606136,-122.316498
"12960","E JEFFERSON ST & 14TH AVE","", 47.606121,-122.313774
"12980","E JEFFERSON ST & 17TH AVE","", 47.606106,-122.309929
"12991","E JEFFERSON ST & 20TH AVE","", 47.606098,-122.305962
"13001","21ST AVE & E JAMES ST","", 47.607128,-122.304924
"13020","E CHERRY ST & 23RD AVE","", 47.607941,-122.302330
"13030","E CHERRY ST & 25TH AVE","", 47.607937,-122.299774
"13040","E CHERRY ST & MARTIN L KING JR WAY","", 47.607929,-122.296364
"13060","E CHERRY ST & 31ST AVE","", 47.607906,-122.292305
"13070","E CHERRY ST & 33RD AVE","", 47.607883,-122.290253
"13080","34TH AVE & E COLUMBIA ST","", 47.609474,-122.289299
"13090","E SPRING ST & 34TH AVE","", 47.611694,-122.289574
"13190","INTERLAKEN TURNBA LOOP & 19TH AVE E","", 47.632511,-122.307358
"13200","19TH AVE E & E GALER ST","", 47.631950,-122.307327
"13210","19TH AVE E & E HIGHLAND DR","", 47.630436,-122.307358
"13220","19TH AVE E & E PROSPECT ST","", 47.628494,-122.307388
"13230","19TH AVE E & E ALOHA ST","", 47.626652,-122.307396
"13240","19TH AVE E & E MERCER ST","", 47.624195,-122.307396
"13250","19TH AVE E & E HARRISON ST","", 47.621902,-122.307426
"13260","19TH AVE E & E JOHN ST","", 47.619457,-122.307465
"13270","19TH AVE & E DENNY WAY","", 47.618263,-122.307495
"13281","E MADISON ST & 11TH AVE","", 47.612450,-122.317879
"13282","MADISON ST & BROADWAY","", 47.611084,-122.321152
"13283","MADISON ST & SUMMIT AVE","", 47.610424,-122.322723
"13284","MADISON ST & BOREN AVE","", 47.609257,-122.325539
"13285","MADISON ST & 9TH AVE","", 47.608334,-122.327736
"13291","MADISON ST & BOREN AVE","", 47.609425,-122.324745
"13292","MADISON ST & SUMMIT AVE","", 47.610374,-122.322479
"13293","E MADISON ST & BROADWAY","", 47.611267,-122.320335
"13294","E MADISON ST & 14TH AVE","", 47.613777,-122.314308
"13300","19TH AVE & E MADISON ST","", 47.617146,-122.307304
"13310","19TH AVE E & E DENNY WAY","", 47.618698,-122.307274
"13320","19TH AVE E & E JOHN ST","", 47.619873,-122.307259
"13330","19TH AVE E & E THOMAS ST","", 47.620682,-122.307251
"13340","19TH AVE E & E HARRISON ST","", 47.622253,-122.307220
"13350","19TH AVE E & E REPUBLICAN ST","", 47.623402,-122.307205
"13360","19TH AVE E & E ROY ST","", 47.625469,-122.307220
"13370","19TH AVE E & E ALOHA ST","", 47.627045,-122.307190
"13380","19TH AVE E & E PROSPECT ST","", 47.628860,-122.307167
"13381","19TH AVE E & E HIGHLAND DR","", 47.630806,-122.307137
"13390","BELLEVUE AVE E & BELLEVUE PL E","", 47.626499,-122.326691
"13400","BELLEVUE AVE E & E ROY ST","", 47.624958,-122.326698
"13410","BELLEVUE AVE E & E REPUBLICAN ST","", 47.623188,-122.326698
"13420","BELLEVUE AVE E & E THOMAS ST","", 47.620655,-122.326691
"13430","BELLEVUE AVE E & E DENNY WAY","", 47.618534,-122.326820
"13441","BELLEVUE AVE & E OLIVE WAY","", 47.616734,-122.326889
"13450","BELLEVUE AVE & E PINE ST","", 47.615379,-122.326698
"13460","BELLEVUE AVE & E OLIVE ST","", 47.616508,-122.326691
"13470","E OLIVE WAY & E HOWELL ST","", 47.617878,-122.326035
"13480","SUMMIT AVE E & E OLIVE WAY","", 47.619362,-122.325195
"13500","SUMMIT AVE E & E HARRISON ST","", 47.622181,-122.325211
"13510","SUMMIT AVE E & E MERCER ST","", 47.624565,-122.325226
"13530","BELMONT AVE E & SUMMIT AVE E","", 47.626980,-122.325676
"13540","NW 105TH ST & 14TH AVE NW","", 47.705120,-122.373596
"13541","NW 103RD ST & 13TH AVE NW","", 47.703430,-122.373131
"13542","14TH AVE NW & NW 100TH ST","", 47.701633,-122.374199
"13550","15TH AVE NW & NW 100TH ST","", 47.701244,-122.376877
"13560","15TH AVE NW & NW 96TH ST","", 47.698727,-122.376892
"13570","15TH AVE NW & NW 92ND ST","", 47.696156,-122.376900
"13580","15TH AVE NW & NW 90TH ST","", 47.694469,-122.376900
"13585","15TH AVE NW & NW 87TH ST","", 47.692932,-122.376755
"13600","15TH AVE NW & NW 85TH ST","", 47.690159,-122.376900
"13620","15TH AVE NW & NW 80TH ST","", 47.686638,-122.376900
"13640","15TH AVE NW & NW 75TH ST","", 47.682991,-122.376892
"13660","15TH AVE NW & NW 70TH ST","", 47.679398,-122.376877
"13670","15TH AVE NW & NW 65TH ST","", 47.676014,-122.376640
"13700","15TH AVE NW & NW 60TH ST","", 47.672436,-122.376312
"13721","15TH AVE NW & NW MARKET ST","", 47.668228,-122.376312
"13760","15TH AVE NW & NW LEARY WAY","", 47.663143,-122.376480
"13770","15TH AVE W & W EMERSON ST","", 47.653473,-122.376328
"13775","W EMERSON PL & 21ST AVE W","", 47.655807,-122.383720
"13800","15TH AVE W & W DRAVUS ST","", 47.648170,-122.376862
"13810","15TH AVE W & W ARMOUR ST","", 47.644825,-122.376328
"13830","15TH AVE W & W WHEELER ST","", 47.640320,-122.376312
"13840","15TH AVE W & W ARMORY WAY","", 47.637482,-122.376305
"13870","ELLIOTT AVE W & W GALER ST","", 47.631969,-122.375397
"13890","ELLIOTT AVE W & W PROSPECT ST","", 47.629066,-122.371742
"13910","W MERCER ST & 3RD AVE W","", 47.624535,-122.360718
"13915","1ST AVE W & W MERCER ST","", 47.624794,-122.358116
"14035","1ST AVE & CEDAR ST","", 47.615818,-122.350494
"14038","W MERCER ST & 3RD AVE W","", 47.624668,-122.361153
"14070","ELLIOTT AVE W & W PROSPECT ST","", 47.628788,-122.371124
"14090","ELLIOTT AVE W & W GALER ST","", 47.632252,-122.375481
"14110","15TH AVE W & W NEWTON ST","", 47.636963,-122.376099
"14130","15TH AVE W & W WHEELER ST","", 47.640923,-122.376114
"14150","15TH AVE W & W ARMOUR ST","", 47.644936,-122.376122
"14170","15TH AVE W & W DRAVUS ST","", 47.649097,-122.376045
"14190","15TH AVE W & W EMERSON ST","", 47.653942,-122.376122
"14195","W EMERSON PL & 21ST AVE W","", 47.655598,-122.383530
"14200","15TH AVE NW & NW LEARY WAY","", 47.663437,-122.375977
"14230","15TH AVE NW & NW MARKET ST","", 47.668472,-122.376114
"14240","15TH AVE NW & NW 57TH ST","", 47.670391,-122.376114
"14260","15TH AVE NW & NW 61ST ST","", 47.673557,-122.376114
"14280","15TH AVE NW & NW 65TH ST","", 47.676731,-122.376671
"14300","15TH AVE NW & NW 70TH ST","", 47.679726,-122.376671
"14320","15TH AVE NW & NW 75TH ST","", 47.683422,-122.376686
"14340","15TH AVE NW & NW 80TH ST","", 47.687130,-122.376701
"14360","15TH AVE NW & NW 85TH ST","", 47.691177,-122.376709
"14380","15TH AVE NW & NW 92ND ST","", 47.696289,-122.376701
"14390","15TH AVE NW & NW 96TH ST","", 47.698822,-122.376686
"14400","15TH AVE NW & NW 100TH ST","", 47.701401,-122.376671
"14410","14TH AVE NW & NW 100TH ST","", 47.701782,-122.373993
"14420","14TH AVE NW & NW 103RD ST","", 47.703308,-122.373993
"14960","ALKI AVE SW & 61ST AVE SW","", 47.579041,-122.410667
"14961","61ST AVE SW & SW STEVENS ST","", 47.577518,-122.410797
"14962","61ST AVE SW & SW ADMIRAL WAY","", 47.576027,-122.410835
"14963","SW ADMIRAL WAY & 60TH AVE SW","", 47.575817,-122.409019
"14970","SW ADMIRAL WAY & 59TH AVE SW","", 47.576073,-122.407791
"14980","SW ADMIRAL WAY & 57TH AVE SW","", 47.577034,-122.405182
"15000","SW ADMIRAL WAY & SW STEVENS ST","", 47.578583,-122.400917
"15002","SW ADMIRAL WAY & 51ST AVE SW","", 47.579189,-122.396996
"15030","SW ADMIRAL WAY & SW LANDER ST","", 47.579529,-122.393799
"15040","SW ADMIRAL WAY & 47TH AVE SW","", 47.581158,-122.391571
"15050","SW ADMIRAL WAY & 45TH AVE SW","", 47.581142,-122.388924
"15060","SW ADMIRAL WAY & CALIFORNIA AVE SW","", 47.581123,-122.386177
"15070","SW ADMIRAL WAY & 41ST AVE SW","", 47.581112,-122.383980
"15080","SW ADMIRAL WAY & 39TH AVE SW","", 47.581043,-122.380920
"15090","SW ADMIRAL WAY & BELVIDERE AVE SW","", 47.581024,-122.378922
"15100","SW ADMIRAL WAY & SW OLGA ST","", 47.580250,-122.376793
"15120","SW ADMIRAL WAY & SW CITY VIEW ST","", 47.573505,-122.373230
"15140","SW SPOKANE ST & 26TH AVE SW","", 47.571293,-122.365234
"15145","SW SPOKANE ST & CHELAN AVE SW","", 47.571266,-122.362396
"15190","1ST AVE S & S SPOKANE ST","", 47.572544,-122.334106
"15205","1ST AVE S & S HANFORD ST","", 47.575924,-122.334106
"15230","1ST AVE S & S LANDER ST","", 47.579685,-122.334106
"15380","1ST AVE S & S LANDER ST","", 47.579250,-122.334312
"15395","1ST AVE S & S HANFORD ST","", 47.575760,-122.334312
"15451","SW SPOKANE ST & CHELAN AVE SW","", 47.571712,-122.363312
"15460","SW SPOKANE ST & 26TH AVE SW","", 47.571712,-122.365318
"15540","SW ADMIRAL WAY & CALIFORNIA AVE SW","", 47.581268,-122.386871
"15560","SW ADMIRAL WAY & 46TH AVE SW","", 47.581299,-122.390976
"15570","SW ADMIRAL WAY & SW WAITE ST","", 47.581039,-122.392281
"15580","SW ADMIRAL WAY & 49TH AVE SW","", 47.579765,-122.393776
"15590","SW ADMIRAL WAY & 51ST AVE SW","", 47.579338,-122.397339
"15610","SW ADMIRAL WAY & SW LANDER ST","", 47.578976,-122.400536
"15630","SW ADMIRAL WAY & 57TH AVE SW","", 47.577168,-122.405319
"15640","SW ADMIRAL WAY & 59TH AVE SW","", 47.576111,-122.408051
"15650","SW ADMIRAL WAY & 61ST AVE SW","", 47.575974,-122.410660
"15651","63RD AVE SW & SW ADMIRAL WAY","", 47.576241,-122.413239
"15652","63RD AVE SW & ALKI AVE SW","", 47.578209,-122.413185
"16100","AURORA VILLAGE TC","", 47.774246,-122.342407
"16101","AURORA VILLAGE TC","", 47.774475,-122.341988
"16102","AURORA VILLAGE TC","", 47.774483,-122.341400
"16103","AURORA VILLAGE TC","", 47.774483,-122.340782
"16104","AURORA VILLAGE TC","", 47.774368,-122.341988
"16112","AURORA VILLAGE TC","", 47.774250,-122.341301
"16120","AURORA AVE N & N 200TH ST","", 47.774883,-122.345947
"16130","N 200TH ST & AURORA AVE N","", 47.774090,-122.344788
"16140","MERIDIAN AVE N & N 203RD ST","", 47.775646,-122.335388
"16160","MERIDIAN AVE N & N 198TH ST","", 47.772114,-122.335320
"16170","MERIDIAN AVE N & N 194TH ST","", 47.769840,-122.335266
"16180","MERIDIAN AVE N & N 190TH ST","", 47.766693,-122.335197
"16190","MERIDIAN AVE N & N 188TH ST","", 47.765369,-122.335167
"16200","MERIDIAN AVE N & N 185TH ST","", 47.762920,-122.335114
"16210","MERIDIAN AVE N & N 183RD ST","", 47.761539,-122.335091
"16220","MERIDIAN AVE N & N 180TH ST","", 47.759384,-122.335030
"16230","MERIDIAN AVE N & N 178TH ST","", 47.757553,-122.334991
"16240","MERIDIAN AVE N & N 175TH ST","", 47.755634,-122.334938
"16250","MERIDIAN AVE N & N 170TH ST","", 47.752548,-122.334885
"16260","MERIDIAN AVE N & N 167TH ST","", 47.750267,-122.334831
"16270","MERIDIAN AVE N & N 165TH ST","", 47.748444,-122.334801
"16280","MERIDIAN AVE N & N 163RD ST","", 47.746639,-122.334747
"16290","MERIDIAN AVE N & N 160TH ST","", 47.744835,-122.334694
"16300","MERIDIAN AVE N & N 158TH ST","", 47.743401,-122.334648
"16310","MERIDIAN AVE N & N 155TH ST","", 47.741138,-122.334579
"16330","MERIDIAN AVE N & N 150TH ST","", 47.737576,-122.334473
"16340","MERIDIAN AVE N & N 148TH ST","", 47.736145,-122.334450
"16390","NE RAVENNA BLVD & WOODLAWN AVE NE","", 47.678467,-122.324844
"16400","NE RAVENNA BLVD & NE 68TH ST","", 47.677387,-122.323875
"16409","NE RAVENNA BLVD & I-5","", 47.674740,-122.321426
"16410","NE 65TH ST & NE RAVENNA BLVD","", 47.675797,-122.321358
"16427","WEEDIN PL NE & 8TH AVE NE","", 47.676861,-122.320404
"16428","5TH AVE NE & NE MAPLE LEAF PL","", 47.682594,-122.322998
"16430","NE 65TH ST & ROOSEVELT WAY NE","", 47.675766,-122.317535
"16440","ROOSEVELT WAY NE & NE 65TH ST","", 47.675457,-122.317467
"16450","ROOSEVELT WAY NE & NE 63RD ST","", 47.673885,-122.317467
"16460","ROOSEVELT WAY NE & NE RAVENNA BLVD","", 47.672356,-122.317467
"16470","ROOSEVELT WAY NE & NE 58TH ST","", 47.670536,-122.317467
"16480","ROOSEVELT WAY NE & NE 56TH ST","", 47.669086,-122.317467
"16490","ROOSEVELT WAY NE & NE 53RD ST","", 47.666851,-122.317497
"16515","NE RAVENNA BLVD & NE 68TH ST","", 47.677872,-122.323601
"16520","NE RAVENNA BLVD & WOODLAWN AVE NE","", 47.678932,-122.324608
"16570","MERIDIAN AVE N & N 145TH ST","", 47.733891,-122.334175
"16580","MERIDIAN AVE N & N 148TH ST","", 47.736671,-122.334251
"16590","MERIDIAN AVE N & N 150TH ST","", 47.738098,-122.334297
"16610","MERIDIAN AVE N & N 155TH ST","", 47.741638,-122.334389
"16620","MERIDIAN AVE N & N 156TH PL","", 47.743176,-122.334435
"16630","MERIDIAN AVE N & N 159TH ST","", 47.744774,-122.334488
"16640","MERIDIAN AVE N & N 163RD ST","", 47.746647,-122.334541
"16650","MERIDIAN AVE N & N 165TH ST","", 47.748962,-122.334610
"16660","MERIDIAN AVE N & N 167TH ST","", 47.750801,-122.334641
"16670","MERIDIAN AVE N & N 170TH ST","", 47.752296,-122.334663
"16680","MERIDIAN AVE N & N 175TH ST","", 47.756298,-122.334747
"16690","MERIDIAN AVE N & N 178TH ST","", 47.758083,-122.334801
"16700","MERIDIAN AVE N & N 180TH ST","", 47.759907,-122.334839
"16710","MERIDIAN AVE N & N 183RD ST","", 47.761700,-122.334885
"16720","MERIDIAN AVE N & N 185TH ST","", 47.763523,-122.334923
"16730","MERIDIAN AVE N & N 187TH ST","", 47.765060,-122.334969
"16740","MERIDIAN AVE N & N 190TH ST","", 47.767166,-122.335007
"16750","MERIDIAN AVE N & N 193RD ST","", 47.769440,-122.335060
"16760","MERIDIAN AVE N & N 198TH ST","", 47.772446,-122.335114
"16770","N 200TH ST & BURKE AVE N","", 47.774246,-122.336700
"16800","MERIDIAN AVE N & N 145TH ST","", 47.733818,-122.334381
"16810","MERIDIAN AVE N & N 143RD ST","", 47.732105,-122.334366
"16830","MERIDIAN AVE N & ROOSEVELT WAY N","", 47.728809,-122.334320
"16840","MERIDIAN AVE N & N 135TH ST","", 47.726711,-122.334297
"16850","MERIDIAN AVE N & N 133RD ST","", 47.725124,-122.334297
"16860","MERIDIAN AVE N & N 130TH ST","", 47.722950,-122.334282
"16870","N 128TH ST & MERIDIAN AVE N","", 47.722084,-122.334572
"16880","DENSMORE AVE N & N 128TH ST","", 47.721592,-122.337669
"16890","DENSMORE AVE N & N 125TH ST","", 47.719292,-122.338570
"16900","DENSMORE AVE N & N 122ND ST","", 47.717133,-122.337410
"16910","N 122ND ST & MERIDIAN AVE N","", 47.717056,-122.334503
"16913","NORTHWEST HOSP","", 47.713749,-122.336441
"16920","MERIDIAN AVE N & N 120TH ST","", 47.716000,-122.334213
"16940","MERIDIAN AVE N & N 115TH ST","", 47.711971,-122.334160
"16952","NE NORTHGATE WAY & 3RD AVE NE","", 47.708549,-122.325935
"16953","NE NORTHGATE WAY & 3RD AVE NE","", 47.708675,-122.325516
"16958","N NORTHGATE WAY & MERIDIAN AVE N","", 47.708580,-122.333313
"16960","MERIDIAN AVE N & N NORTHGATE WAY","", 47.708210,-122.334091
"16980","MERIDIAN AVE N & N 105TH ST","", 47.705120,-122.334038
"16990","COLLEGE WAY N & N 103RD ST","", 47.703053,-122.334106
"17010","COLLEGE WAY N & N 97TH ST","", 47.699341,-122.335297
"17022","N 92ND ST & CORLISS AVE N","", 47.695854,-122.330673
"17024","1ST AVE NE & NE 95TH ST","", 47.697922,-122.328354
"17040","WALLINGFORD AVE N & N 90TH ST","", 47.694248,-122.336594
"17070","WALLINGFORD AVE N & N 82ND ST","", 47.688530,-122.336510
"17080","WALLINGFORD AVE N & N 80TH ST","", 47.687061,-122.336464
"17100","N 80TH ST & CORLISS AVE N","", 47.686813,-122.330688
"17110","1ST AVE NE & N 80TH ST","", 47.686600,-122.328438
"17120","1ST AVE NE & N 77TH ST","", 47.684860,-122.328407
"17140","WOODLAWN AVE NE & LATONA AVE NE","", 47.682034,-122.326538
"17160","WOODLAWN AVE NE & NE RAVENNA BLVD","", 47.679577,-122.324730
"17170","WOODLAWN AVE NE & 5TH AVE NE","", 47.678181,-122.325783
"17180","WOODLAWN AVE NE & 1ST AVE NE","", 47.677597,-122.328697
"17210","MERIDIAN AVE N & N 63RD ST","", 47.674076,-122.333656
"17230","KIRKWOOD PL N & N 59TH ST","", 47.671562,-122.333534
"17250","N 56TH ST & KEYSTONE PL N","", 47.668751,-122.332832
"17260","MERIDIAN AVE N & N 54TH ST","", 47.667709,-122.333801
"17280","MERIDIAN AVE N & N 50TH ST","", 47.664829,-122.333832
"17300","MERIDIAN AVE N & N 46TH ST","", 47.661942,-122.333847
"17310","N 45TH ST & WALLINGFORD AVE N","", 47.661461,-122.335526
"17350","N 40TH ST & ASHWORTH AVE N","", 47.655735,-122.340248
"17360","N 40TH ST & ASHWORTH AVE N","", 47.655598,-122.339661
"17410","N 45TH ST & WALLINGFORD AVE N","", 47.661316,-122.335632
"17420","MERIDIAN AVE N & N 45TH ST","", 47.661663,-122.333626
"17440","MERIDIAN AVE N & N 49TH ST","", 47.664352,-122.333626
"17460","MERIDIAN AVE N & N 53RD ST","", 47.667377,-122.333595
"17470","N 56TH ST & KEYSTONE PL N","", 47.668667,-122.332603
"17490","KIRKWOOD PL N & N 59TH ST","", 47.671551,-122.333298
"17510","WOODLAWN AVE N & N 63RD ST","", 47.674355,-122.333160
"17530","WOODLAWN AVE NE & SUNNYSIDE AVE N","", 47.677475,-122.329132
"17550","WOODLAWN AVE NE & NE RAVENNA BLVD","", 47.678398,-122.325188
"17560","WOODLAWN AVE NE & NE 71ST ST","", 47.680031,-122.324486
"17570","WOODLAWN AVE NE & 4TH AVE NE","", 47.681919,-122.326057
"17590","1ST AVE NE & NE 77TH ST","", 47.685265,-122.328217
"17600","1ST AVE NE & NE 80TH ST","", 47.686634,-122.328232
"17610","N 80TH ST & CORLISS AVE N","", 47.686947,-122.330933
"17640","WALLINGFORD AVE N & N 80TH ST","", 47.687332,-122.336273
"17650","WALLINGFORD AVE N & N 82ND ST","", 47.688900,-122.336319
"17680","WALLINGFORD AVE N & N 90TH ST","", 47.694363,-122.336388
"17694","COLLEGE WAY N","", 47.697823,-122.332741
"17695","COLLEGE WAY N","", 47.697693,-122.332558
"17696","1ST AVE NE & NE 95TH ST","", 47.697723,-122.328560
"17698","N 92ND ST & CORLISS AVE N","", 47.695995,-122.330513
"17710","COLLEGE WAY N & N 97TH ST","", 47.699268,-122.334908
"17730","COLLEGE WAY N & N 103RD ST","", 47.703201,-122.333794
"17740","MERIDIAN AVE N & N 105TH ST","", 47.705006,-122.333832
"17755","N NORTHGATE WAY & MERIDIAN AVE N","", 47.708534,-122.334610
"17760","MERIDIAN AVE N & N NORTHGATE WAY","", 47.709003,-122.333900
"17780","MERIDIAN AVE N & N 115TH ST","", 47.712456,-122.333954
"17800","MERIDIAN AVE N & N 120TH ST","", 47.716145,-122.334023
"17815","N 122ND ST & MERIDIAN AVE N","", 47.717194,-122.334450
"17820","N 122ND ST & BURKE AVE N","", 47.717190,-122.336456
"17830","DENSMORE AVE N & N 125TH ST","", 47.719486,-122.338478
"17840","DENSMORE AVE N & N 128TH ST","", 47.721878,-122.337318
"17850","N 128TH ST & MERIDIAN AVE N","", 47.721947,-122.334526
"17860","MERIDIAN AVE N & N 130TH ST","", 47.723156,-122.334091
"17870","MERIDIAN AVE N & N 133RD ST","", 47.725273,-122.334091
"17880","MERIDIAN AVE N & N 135TH ST","", 47.726734,-122.334091
"17890","MERIDIAN AVE N & ROOSEVELT WAY N","", 47.728920,-122.334122
"17900","MERIDIAN AVE N & N 140TH ST","", 47.730442,-122.334129
"17950","VIEW AVE NW & LOYAL AVE NW","", 47.695328,-122.401215
"17951","LOYAL AVE NW & GOLDEN GDNS DR NW","", 47.693913,-122.399467
"17952","GOLDEN GDNS DR NW & NW 87TH ST","", 47.692364,-122.398811
"17960","32ND AVE NW & NW 85TH ST","", 47.690132,-122.398407
"17970","32ND AVE NW & 8200 BLOCK","", 47.688011,-122.398407
"17980","32ND AVE NW & NW 80TH ST","", 47.686363,-122.398407
"17990","32ND AVE NW & NW 77TH ST","", 47.684975,-122.398415
"18000","32ND AVE NW & NW 75TH ST","", 47.683136,-122.398407
"18010","32ND AVE NW & NW 73RD ST","", 47.681679,-122.398499
"18020","32ND AVE NW & NW 72ND ST","", 47.680710,-122.398499
"18030","32ND AVE NW & NW 70TH ST","", 47.679245,-122.398483
"18040","32ND AVE NW & NW 67TH ST","", 47.677048,-122.398476
"18041","32ND AVE NW & NW 64TH ST","", 47.674480,-122.398483
"18050","32ND AVE NW & NW 61ST ST","", 47.672779,-122.398476
"18060","32ND AVE NW & NW 59TH ST","", 47.671360,-122.398430
"18066","NW MARKET ST & 32ND AVE NW","", 47.668552,-122.397911
"18070","32ND AVE NW & NW 56TH ST","", 47.669605,-122.398430
"18085","32ND AVE NW & NW MARKET ST","", 47.668049,-122.398415
"18090","NW 54TH ST & 30TH AVE NW","", 47.667965,-122.395714
"18100","NW MARKET ST & 28TH AVE NW","", 47.668591,-122.392502
"18120","NW MARKET ST & BALLARD AVE NW","", 47.668613,-122.385956
"18140","LEARY AVE NW & 20TH AVE NW","", 47.666222,-122.381737
"18150","LEARY AVE NW & NW IONE PL","", 47.665367,-122.380714
"18165","NW LEARY WAY & 15TH AVE NW","", 47.663593,-122.375587
"29720","NW MARKET ST & 20TH AVE NW","", 47.668739,-122.382423
"29865","NE 45TH ST & ROOSEVELT WAY NE","", 47.661236,-122.317299
"29920","NE 45TH ST & MARY GATES MEMORI DR NE","", 47.661148,-122.292465
"29930","NE 45TH ST & 36TH AVE NE","", 47.661049,-122.289024
"29940","NE 45TH ST & 38TH AVE NE","", 47.661190,-122.286728
"29950","NE 45TH ST & 40TH AVE NE","", 47.661194,-122.284721
"29952","NE 45TH ST & 42ND AVE NE","", 47.661205,-122.282509
"29954","NE 45TH ST & 47TH AVE NE","", 47.661221,-122.277275
"30090","NE 45TH ST & 49TH AVE NE","", 47.661209,-122.274696
"30100","NE 45TH ST & 51ST AVE NE","", 47.661209,-122.272537
"30110","WEST LAUREL DR NE & EAST LAUREL DR NE","", 47.662571,-122.270309
"30120","SEWARD PK AVE S & S HENDERSON ST","", 47.522945,-122.264626
"30130","SEWARD PK AVE S & S FISHER PL","", 47.521168,-122.263962
"30140","S HENDERSON ST & RAINIER AVE S","", 47.523376,-122.270554
"30160","S HENDERSON ST & RENTON AVE S","", 47.523384,-122.276894
"30170","S HENDERSON ST & MARTIN L KING JR WAY S","", 47.523285,-122.279518
"30171","CARKEEK DR S & 41ST AVE S","", 47.522297,-122.281181
"30180","CARKEEK DR S & 40TH AVE S","", 47.517262,-122.282402
"30190","39TH AVE S & S CAMBRIDGE ST","", 47.518478,-122.283562
"30211","39TH AVE S & S BARTON ST","", 47.521484,-122.283562
"30220","BEACON AVE S & 38TH AVE S","", 47.523163,-122.285118
"30240","BEACON AVE S & S CLOVERDALE ST","", 47.526371,-122.287590
"30250","BEACON AVE S & S THISTLE ST","", 47.528103,-122.287659
"30270","BEACON AVE S & S MONROE ST","", 47.530773,-122.287781
"30290","BEACON AVE S & S HOLDEN ST","", 47.534000,-122.289261
"30300","BEACON AVE S & S WEBSTER ST","", 47.535229,-122.290367
"30310","BEACON AVE S & 32ND AVE S","", 47.536095,-122.291634
"30320","BEACON AVE S & S OTHELLO ST","", 47.537197,-122.293289
"30330","BEACON AVE S & S MYRTLE ST","", 47.538307,-122.294983
"30340","BEACON AVE S & S MYRTLE ST","", 47.539234,-122.296349
"30360","BEACON AVE S & S HOLLY ST","", 47.542492,-122.299049
"30380","BEACON AVE S & S GRAHAM ST","", 47.546623,-122.300308
"30390","BEACON AVE S & S SPENCER ST","", 47.548042,-122.300743
"30410","BEACON AVE S & S ORCAS ST","", 47.550900,-122.301605
"30430","BEACON AVE S & S BRANDON ST","", 47.553944,-122.302536
"30440","BEACON AVE S & S DAWSON ST","", 47.556240,-122.303215
"30453","VA HOSPITAL","", 47.564117,-122.308167
"30460","S COLUMBIAN WAY & BEACON AVE S","", 47.559788,-122.305115
"30470","S COLUMBIAN WAY & S ANGELINE ST","", 47.560570,-122.307480
"30480","S COLUMBIAN WAY & VA HOSPITAL RD","", 47.562210,-122.311211
"30490","S COLUMBIAN WAY & S OREGON ST","", 47.563477,-122.312920
"30510","15TH AVE S & S DAKOTA ST","", 47.567486,-122.313370
"30520","S COLUMBIAN WAY & 15TH AVE S","", 47.570164,-122.313789
"30530","S COLUMBIAN WAY & S SPOKANE ST","", 47.572041,-122.314629
"30538","4TH AVE S & S SPOKANE ST","", 47.572174,-122.328789
"30550","4TH AVE S & S HANFORD ST","", 47.575222,-122.328972
"30560","4TH AVE S & S FOREST ST","", 47.577671,-122.328957
"30570","4TH AVE S & S LANDER ST","", 47.580231,-122.328957
"30590","4TH AVE S & S WALKER ST","", 47.583687,-122.328957
"30600","4TH AVE S & S HOLGATE ST","", 47.586391,-122.328972
"30635","4TH AVE S & S ROYAL BROUGHAM WAY","", 47.593208,-122.328957
"30670","4TH AVE S & S ROYAL BROUGHAM WAY","", 47.590668,-122.329254
"30690","4TH AVE S & S HOLGATE ST","", 47.585659,-122.329163
"30700","4TH AVE S & S WALKER ST","", 47.583721,-122.329163
"30720","4TH AVE S & S LANDER ST","", 47.579372,-122.329163
"30748","4TH AVE S & S HORTON ST","", 47.574688,-122.329163
"30770","S COLUMBIAN WAY & S SPOKANE ST","", 47.571354,-122.314514
"30790","15TH AVE S & S DAKOTA ST","", 47.566994,-122.313576
"30800","15TH AVE S & S NEVADA ST","", 47.565063,-122.313599
"30820","S COLUMBIAN WAY & S SNOQUALMIE ST","", 47.561768,-122.310844
"30830","S COLUMBIAN WAY & S ANGELINE ST","", 47.560528,-122.307838
"30855","BEACON AVE S & S DAWSON ST","", 47.555714,-122.303589
"30870","BEACON AVE S & S BRANDON ST","", 47.553501,-122.302887
"30890","BEACON AVE S & S ORCAS ST","", 47.550800,-122.302101
"30910","BEACON AVE S & S RAYMOND ST","", 47.548721,-122.301445
"30930","BEACON AVE S & S GRAHAM ST","", 47.546494,-122.300789
"30950","BEACON AVE S & S HOLLY ST","", 47.542751,-122.299637
"30960","BEACON AVE S & 27TH AVE S","", 47.540131,-122.298286
"30980","BEACON AVE S & S OTHELLO ST","", 47.537270,-122.294136
"31001","BEACON AVE S & S WEBSTER ST","", 47.535332,-122.291222
"31010","BEACON AVE S & S HOLDEN ST","", 47.533482,-122.289520
"31030","BEACON AVE S & S MONROE ST","", 47.530750,-122.288246
"31050","BEACON AVE S & S THISTLE ST","", 47.528103,-122.288124
"31060","BEACON AVE S & S CLOVERDALE ST","", 47.525883,-122.288025
"31070","BEACON AVE S & 37TH AVE S","", 47.523521,-122.286133
"31090","39TH AVE S & S BARTON ST","", 47.521069,-122.283768
"31111","39TH AVE S & S CAMBRIDGE ST","", 47.518436,-122.283768
"31130","CARKEEK DR S & 40TH AVE S","", 47.517086,-122.282318
"31131","CARKEEK DR S & 41ST AVE S","", 47.522690,-122.280830
"31132","S HENDERSON ST & MARTIN L KING JR WAY S","", 47.523251,-122.277878
"31134","S HENDERSON ST & 48TH AVE S","", 47.523243,-122.272575
"31135","S HENDERSON ST & RAINIER AVE S","", 47.523235,-122.269341
"31136","S HENDERSON ST & 53RD AVE S","", 47.523224,-122.266037
"31137","S HENDERSON ST & RAINIER AVE S","", 47.523235,-122.268219
"31140","DISCOVERY PARK RD & TEXAS WAY","", 47.664749,-122.410904
"31150","W GOVERNMENT WAY & 36TH AVE W","", 47.658321,-122.403145
"31160","W GOVERNMENT WAY & 31ST AVE W","", 47.661102,-122.397842
"31170","W GOVERNMENT WAY & 30TH AVE W","", 47.661247,-122.395729
"31180","GILMAN AVE W & 28TH PL W","", 47.660969,-122.393623
"31190","GILMAN AVE W & W JAMESON ST","", 47.659454,-122.391106
"31200","GILMAN AVE W & 26TH AVE W","", 47.658337,-122.389702
"31210","GILMAN AVE W & 25TH AVE W","", 47.657135,-122.388199
"31220","GILMAN AVE W & 24TH AVE W","", 47.656250,-122.387077
"31230","22ND AVE W & GILMAN AVE W","", 47.653683,-122.384758
"31240","22ND AVE W & W RUFFNER ST","", 47.651901,-122.384781
"31250","22ND AVE W & W BERTONA ST","", 47.650131,-122.384773
"31260","22ND AVE W & W DRAVUS ST","", 47.648266,-122.384773
"31270","22ND AVE W & W BARRETT ST","", 47.646347,-122.384758
"31280","22ND AVE W & W ARMOUR ST","", 47.644539,-122.384743
"31290","22ND AVE W & THORNDYKE AVE W","", 47.643047,-122.384720
"31300","THORNDYKE AVE W & 23RD AVE W","", 47.640854,-122.386246
"31310","THORNDYKE AVE W & THORNDYKE PL W","", 47.639469,-122.387383
"31320","THORNDYKE AVE W & W BOSTON ST","", 47.638294,-122.388252
"31330","THORNDYKE AVE W & W NEWTON ST","", 47.636757,-122.389404
"31340","W BLAINE ST & 27TH AVE W","", 47.635162,-122.391235
"31350","THORNDYKE AVE W & W BLAINE ST","", 47.635212,-122.390396
"31360","THORNDYKE AVE W & W NEWTON ST","", 47.637131,-122.388702
"31370","THORNDYKE AVE W & W BOSTON ST","", 47.638340,-122.387787
"21360","16TH AVE SW & SW TRENTON ST","", 47.524963,-122.354980
"21370","16TH AVE SW & SW CLOVERDALE ST","", 47.526760,-122.354980
"21380","16TH AVE SW & SW THISTLE ST","", 47.528519,-122.354965
"21390","16TH AVE SW & SW ELMGROVE ST","", 47.530273,-122.354950
"21400","16TH AVE SW & SW KENYON ST","", 47.532120,-122.354950
"21410","16TH AVE SW & SW HOLDEN ST","", 47.533516,-122.354935
"21420","SW AUSTIN ST & DUMAR WAY SW","", 47.534626,-122.356155
"21430","DUMAR WAY SW & SW ORCHARD ST","", 47.537792,-122.358650
"21440","SW ORCHARD ST & DELRIDGE WAY SW","", 47.537991,-122.360687
"21450","DELRIDGE WAY SW & SW MYRTLE ST","", 47.539249,-122.360825
"21460","DELRIDGE WAY SW & CROFT PL SW","", 47.540798,-122.360725
"21480","DELRIDGE WAY SW & SW HOLLY ST","", 47.542999,-122.361115
"21500","DELRIDGE WAY SW & SW GRAHAM ST","", 47.546455,-122.362679
"21520","DELRIDGE WAY SW & SW JUNEAU ST","", 47.549973,-122.362915
"21540","DELRIDGE WAY SW & SW BRANDON ST","", 47.553638,-122.362862
"21560","DELRIDGE WAY SW & SW HUDSON ST","", 47.557411,-122.362816
"21570","DELRIDGE WAY SW & SW EDMUNDS ST","", 47.559490,-122.362793
"21590","DELRIDGE WAY SW & SW OREGON ST","", 47.563183,-122.363258
"21600","DELRIDGE WAY SW & SW GENESEE ST","", 47.565006,-122.363213
"21620","DELRIDGE WAY SW & SW ANDOVER ST","", 47.568348,-122.363190
"21670","AIRPT WAY S & DIAGONAL AVE S","", 47.573235,-122.321838
"21680","AIRPT WAY S & S HORTON ST","", 47.574989,-122.321304
"21690","AIRPT WAY S & S STEVENS ST","", 47.577145,-122.321304
"21700","AIRPT WAY S & S LANDER ST","", 47.579678,-122.321304
"21710","AIRPT WAY S & S BAYVIEW ST","", 47.581261,-122.321304
"21720","AIRPT WAY S & S COLLEGE ST","", 47.583424,-122.321289
"21730","AIRPT WAY S & S HILL ST","", 47.584736,-122.321289
"21740","S HOLGATE ST & AIRPT WAY S","", 47.586273,-122.321800
"21765","6TH AVE S & S ATLANTIC ST","", 47.590759,-122.325867
"21833","6TH AVE S & S ROYAL BROUGHAM WAY","", 47.592091,-122.326073
"21860","AIRPT WAY S & S HOLGATE ST","", 47.585682,-122.321495
"21870","AIRPT WAY S & S WALKER ST","", 47.583755,-122.321495
"21880","AIRPT WAY S & S STACY ST","", 47.581676,-122.321495
"21890","AIRPT WAY S & S LANDER ST","", 47.579575,-122.321495
"21910","AIRPT WAY S & S STEVENS ST","", 47.575375,-122.321510
"21920","AIRPT WAY S & DIAGONAL AVE S","", 47.574104,-122.321510
"21940","AIRPT WAY S & S SPOKANE ST","", 47.571812,-122.322861
"21945","KENT DESMOINES PR","", 47.391888,-122.287628
"21990","DELRIDGE WAY SW & SW ANDOVER ST","", 47.568020,-122.363396
"22010","DELRIDGE WAY SW & SW GENESEE ST","", 47.564484,-122.363419
"22020","DELRIDGE WAY SW & SW OREGON ST","", 47.562706,-122.363464
"22040","DELRIDGE WAY SW & SW EDMUNDS ST","", 47.559032,-122.362999
"22050","DELRIDGE WAY SW & SW HUDSON ST","", 47.557556,-122.363022
"22070","DELRIDGE WAY SW & SW BRANDON ST","", 47.553474,-122.363068
"22090","DELRIDGE WAY SW & SW JUNEAU ST","", 47.550175,-122.363121
"22099","DELRIDGE WAY SW & SW GRAHAM ST","", 47.546783,-122.363037
"22120","DELRIDGE WAY SW & SW HOLLY ST","", 47.542870,-122.361313
"22140","DELRIDGE WAY SW & CROFT PL SW","", 47.540600,-122.360878
"22150","DELRIDGE WAY SW & SW MYRTLE ST","", 47.539219,-122.361031
"22157","DELRIDGE WAY SW & SW KENYON ST","", 47.531654,-122.360550
"22160","SW ORCHARD ST & DELRIDGE WAY SW","", 47.537846,-122.360535
"22165","DELRIDGE WAY SW & SW THISTLE ST","", 47.528049,-122.360565
"22170","DUMAR WAY SW & SW ORCHARD ST","", 47.537685,-122.358818
"22175","DELRIDGE WAY SW & SW TRENTON ST","", 47.524368,-122.360580
"22180","SW AUSTIN ST & DUMAR WAY SW","", 47.534492,-122.355904
"22185","DELRIDGE WAY SW & SW TRENTON ST","", 47.524406,-122.360374
"22190","16TH AVE SW & SW HOLDEN ST","", 47.533436,-122.355141
"22193","DELRIDGE WAY SW & SW KENYON ST","", 47.532093,-122.360344
"22195","DELRIDGE WAY SW & SW THISTLE ST","", 47.528568,-122.360359
"22200","16TH AVE SW & SW KENYON ST","", 47.531635,-122.355156
"22210","16TH AVE SW & SW ELMGROVE ST","", 47.529839,-122.355156
"22220","16TH AVE SW & SW THISTLE ST","", 47.528046,-122.355171
"22230","16TH AVE SW & SW CLOVERDALE ST","", 47.526253,-122.355179
"22243","SW HENDERSON ST & 16TH AVE SW","", 47.522938,-122.355507
"22245","16TH AVE SW & SW HENDERSON ST","", 47.522594,-122.355209
"22246","16TH AVE SW & SW CAMBRIDGE ST","", 47.519276,-122.355247
"22252","DELRIDGE WAY SW & SW HENDERSON ST","", 47.522465,-122.359871
"22253","DELRIDGE WAY SW & SW BARTON ST","", 47.520782,-122.358353
"22254","SW CAMBRIDGE ST & 17TH AVE SW","", 47.519131,-122.356125
"22255","SW ROXBURY ST & 16TH AVE SW","", 47.517441,-122.355576
"22256","SW ROXBURY ST & 20TH AVE SW","", 47.517429,-122.359543
"22259","SW ROXBURY ST & 26TH AVE SW","", 47.517437,-122.365715
